num,located,located2,moni_address,lon,lat,stat,st_code,pm2_5,geom,pm10,o3,no2,co,so2
249,충북,진천읍,충북 진천군 진천읍 상산로 65 읍내리 370-1 진천읍사무소 옥상,127.4412732,36.85498237,정좌표,043,34,0101000020E61000007BA6F2D13DDC5F403EE7F20F706D4240,73,0.111,0.014,0.6,0.003
416,전남,여천동(여수),전남 여수시 무선로 190(선원동) 여천동 주민센터 뒷편,127.6524527,34.77751751,정좌표,061,17,0101000020E6100000F62BF8C8C1E95F4039C29AB185634140,52,0.056,0.015,0.5,0.003
50,경기,대야동,경기 시흥시 복지로 37 다다커뮤니티센터,126.7885375,37.44304897,정좌표,031,33,0101000020E6100000DB8AFD6577B25F40975622D4B5B84240,77,0.083,0.03,0.6,0.004
3,서울,강북구,서울 강북구 삼양로 139길 49 우이동 주민센터,127.0118703,37.64793511,정좌표,02,31,0101000020E6100000CC92A57BC2C05F40A9B0A589EFD24240,86,0.09,0.021,0.4,0.003
377,경남,산청읍,경남 산청군 산청읍 산엔청로 6 산청군 여성회관 옥상,127.8740908,35.41497026,정좌표,055,20,0101000020E610000002EF891AF1F75F409DC1D7BE1DB54140,40,0.094,0.006,0.3,0.003
302,대구,내당동,대구광역시 서구 서대구로3길 46 내당4동 행정복지센터 3층 옥상 (내당동),128.5518431,35.85902049,정좌표,053,43,0101000020E6100000BF60DCB2A81160406B922762F4ED4140,84,0.12,0.014,0.3,0.002
216,대전,노은동,대전 유성구 노은동로 87번길 89(노은1동 주민센터) 노은1동 주민센터 3층 옥상,127.318439,36.36826639,정좌표,042,26,0101000020E610000057B1F84D61D45F400CA2625A232F4240,62,0.083,0.01,0.3,0.003
370,경남,명서동,경상남도 창원시 의창구 우곡로101번길 28 명서2동 민원센터 (명서동),128.6417464,35.2433942,정좌표,055,26,0101000020E61000006C0ABF2F891460409E84888A279F4140,53,0.084,0.018,0.5,0.004
221,대전,상대동(대전),대전광역시 유성구 도안대로 398 대전역사박물관 (상대동),127.3353399,36.33685869,정좌표,042,21,0101000020E6100000CFE27B3576D55F403276802F1E2B4240,63,0.092,0.01,0.4,0.003
269,부산,명지동,부산광역시 강서구 명지동 3513-3 봄뜰공원 (명지동),128.9258823,35.10558708,정좌표,051,23,0101000020E610000040CEEAD3A01D604075BD9FE0838D4140,70,0.089,0.016,0.4,0.004
39,경기,교문동,경기 구리시 아차산로 439 구리시청 구리시의회,127.1307751,37.59410397,정좌표,031,23,0101000020E61000006468869E5EC85F4071C950990BCC4240,79,0.1,0.023,0.4,0.004
150,인천,아암,인천광역시 연수구 센트럴로 350 송도달빛축제공원 지장 (송도동),126.6340696,37.40485437,정좌표,032,61,0101000020E6100000D2D8A89894A85F4077659B44D2B34240,119,0.082,0.068,0.6,0.005
384,경남,용지동,경남 창원시 의창구 용지로 239번길 19-4 (용지동 주민센터),128.6841242,35.23608144,정좌표,055,21,0101000020E6100000DF2C6F58E41560400DFFA7EA379E4140,60,0.089,0.018,0.5,0.003
8,서울,금천구,서울 금천구 금하로21길 20 시흥5동 주민센터,126.9083066,37.45239622,정좌표,02,32,0101000020E61000006C6F01B221BA5F40F4DD8C1EE8B94240,72,0.08,0.026,0.4,0.004
47,경기,당동,경기 군포시 산본로197번길 36 당동도서관,126.9451706,37.35371941,정좌표,031,29,0101000020E61000000109D4AC7DBC5F4088F478AD46AD4240,81,0.088,0.024,0.4,0.007
132,경기,호수동,경기 안산시 단원구 안산천남로 119 양지중학교,126.8333699,37.30505609,정좌표,031,33,0101000020E6100000217EB4EE55B55F4071FFF4130CA74240,77,0.086,0.031,0.5,0.005
311,대구,신암동,대구 동구 신암동 72-1 (신암5동사무소)(아양로 37길 92) 주민센터,128.6329246,35.88978593,정좌표,053,27,0101000020E6100000AF3A17EB401460403EE55E81E4F14140,68,0.089,0.009,0.4,0.003
402,전남,나불리,전남 영암군 삼호읍 나불로 192(나불리) 영암소방서,126.4392875,34.76672162,정좌표,061,-1,0101000020E6100000AA8251491D9C5F40A0841DEF23624140,-1,-1,-1,-1,-1
307,대구,산격동,대구광역시 북구 연암로 40 시청별관 105동 3층 옥상 (산격동),128.6014574,35.89267855,정좌표,053,30,0101000020E6100000FDDD96233F1360409C0B6D4A43F24140,70,0.108,0.011,0.3,0.003
219,대전,문창동,대전 중구 보문로 20번길 38(문창동 주민센터) 문창동 주민센터,127.4379209,36.31620811,정좌표,042,11,0101000020E610000008EF61E506DC5F400997E18179284240,45,0.087,0.014,0.5,0.003
215,대전,구성동,대전 유성구 대학로 407 보건환경연구원 보건환경연구원,127.373842,36.37238348,정좌표,042,14,0101000020E6100000C2F7FE06EDD75F40D9150A43AA2F4240,55,0.092,0.009,0.4,0.003
390,경남,진영읍,경남 김해시 진영읍 김해대로365번길 6-24 진영건강증진센터 옥상,128.7310916,35.30779082,정좌표,055,25,0101000020E61000002C0C361A651760405BF488B065A74140,69,0.098,0.019,0.4,0.005
435,광주,건국동,광주 북구 첨단과기로 333 (광주테크노파크 벤처지원센터 옥상) 광주테크노파크 벤처지원센터 옥상,126.8624925,35.22932526,정좌표,062,27,0101000020E6100000E622BE1333B75F4061ECB5875A9D4140,-1,0.095,0.013,0.4,0.003
365,경남,남해읍,경상남도 남해군 남해읍 남해대로 2745 남해유배문학관 옥상,127.8991855,34.83196061,정좌표,055,24,0101000020E610000065E256418CF95F404FC16DAF7D6A4140,74,0.095,0.01,0.4,0.003
294,울산,신정동,울산 남구 봉월로 20번길 9 신정2동주민센터 옥상,129.3078435,35.53465527,정좌표,052,45,0101000020E610000028999CDAD92960405CA479956FC44140,74,0.093,0.03,0.6,0.011
153,인천,영흥,인천광역시 옹진군 영흥면 영흥로251번길 90 영흥 면사무소 2층 옥상 (영흥면사무소),126.4840807,37.25570102,정좌표,032,58,0101000020E6100000FDC79D2DFB9E5F40173A9FCFBAA04240,110,0.12,0.034,0.6,0.006
261,부산,녹산동,부산 강서구 녹산산단 382로 49번길 39 부산환경공단 녹산사업소,128.8630631,35.08442797,인근좌표,051,29,0101000020E61000004D9C81369E1B604043022589CE8A4140,69,0.068,0.018,0.3,0.007
305,대구,만촌동,대구 수성구 만촌2동 934 (동원초등학교)(국채보상로 1000) 동원초등학교,128.6396539,35.8654908,정좌표,053,29,0101000020E610000049A8740B78146040947E0C67C8EE4140,66,0.107,0.018,0.5,0.004
160,강원,남양동1,강원 삼척시 남양길 11(남양동 331-9) 남양동주민센터 3층 옥상,129.1683387,37.44259984,정좌표,033,18,0101000020E6100000D664D70763256040E6018F1CA7B84240,44,0.057,0.011,0.5,0.003
303,대구,다사읍,대구광역시 달성군 다사읍 매곡로12길 37 다사읍주민자치센터,128.4573074,35.86481589,정좌표,053,35,0101000020E610000000E72043A20E60403A4E7E49B2EE4140,67,0.106,0.009,0.4,0.002
435,광주,건국동,광주 북구 첨단과기로 333 (광주테크노파크 벤처지원센터 옥상) 광주테크노파크 벤처지원센터 옥상,126.8624925,35.22932526,정좌표,062,27,0101000020E6100000E622BE1333B75F4061ECB5875A9D4140,-1,0.095,0.013,0.4,0.003
166,강원,양구읍,강원도 양구군 양구읍 관공서로 33 양구읍 측정소,127.9898361,38.10922145,정좌표,033,16,0101000020E61000009D79837959FF5F40C7E2EDF7FA0D4340,48,0.083,0.006,0.3,0.002
408,전남,부흥동,전남 목포시 삼향천로 28(옥암동) 부흥동주민센터,126.4345339,34.80429658,정좌표,061,7,0101000020E610000037604667CF9B5F403CB1B930F3664140,58,0.063,0.006,0.4,0.003
7,서울,구로구,서울 구로구 가마산로 27길 45 구로고등학교,126.8894727,37.49775018,정좌표,02,50,0101000020E6100000D44BE71EEDB85F40CC562447B6BF4240,100,0.076,0.038,0.5,0.005
161,강원,문막읍,강원도 원주시 문막읍 건등로 11 문막읍행정복지센터 부지내 지상,127.8170035,37.31277375,정좌표,033,32,0101000020E6100000EC4D0CC949F45F400DA661F808A84240,66,0.105,0.011,0.4,0.004
12,서울,동작구,서울 동작구 사당로16아길 6 사당4동 주민센터,126.9716328,37.48097418,정좌표,02,39,0101000020E610000023EE563B2FBE5F4003A9DA8F90BD4240,96,0.088,0.031,0.5,0.004
392,경남,하동읍,경남 하동군 하동읍 군청로 23 (하동군청),127.7513141,35.06730881,정좌표,055,24,0101000020E61000008421BC8715F05F4062D738939D884140,69,0.098,0.013,0.4,0.007
431,전남,해남읍,전라남도 해남군 해남읍 남부순환로 114 해남읍사무소,126.5994049,34.56543006,정좌표,061,22,0101000020E6100000FAA35EA65CA65F400AF01F0360484140,52,0.082,0.007,0.4,0.004
16,서울,성동구,서울 성동구 뚝섬로3길 18 성수1가1동주민센터,127.0496882,37.54203211,정좌표,02,43,0101000020E6100000D17F6A172EC35F407BEAE44E61C54240,85,0.112,0.035,0.5,0.005
18,서울,송파구,서울 송파구 백제고분로 236 삼전동 주민센터 (삼전동),127.0925224,37.50272401,정좌표,02,37,0101000020E61000006F8912E3EBC55F4097EEA64259C04240,82,0.112,0.025,0.5,0.004
170,강원,인제읍,강원도 인제군 인제읍 비봉로44번길 93 인제군기상관측소,128.1667859,38.06014081,정좌표,033,5,0101000020E6100000E33D624F560560406F0DAEB1B2074340,46,0.07,0.003,0.1,0.003
24,서울,중구,서울 중구 덕수궁길 15 시청서소문별관 3동,126.9759778,37.56454791,정좌표,02,44,0101000020E6100000CF27976B76BE5F40D23C1D1B43C84240,95,0.085,0.03,0.5,0.004
92,경기,연천,경기 연천군 연천읍 차현로 58 연천군청 지역경제과,127.0762768,38.09646984,정좌표,031,29,0101000020E6100000635C16B8E1C45F40D8ECAB1F590C4340,78,0.107,0.008,0.5,0.005
168,강원,영월읍,강원도 영월군 영월읍 팔괴로 7-3 능동배수펌프장 부지내 지상,128.4553109,37.17258265,정좌표,033,17,0101000020E610000065202AE8910E6040B3CD323017964240,55,0.085,0.01,0.4,0.003
171,강원,정선읍,강원도 정선군 정선읍 정선로 1331 정선읍행정복지센터 옥상,128.6617084,37.38006064,정좌표,033,9,0101000020E6100000A22F18B72C156040FFA5B9D3A5B04240,46,0.073,0.006,0.3,0.002
165,강원,신사우동,강원도 춘천시 사우4길 26 신사우도서관 2층 옥상 (우두동),127.7282018,37.90554365,정좌표,033,28,0101000020E6100000DAF8B8DB9AEE5F40DCECB4DAE8F34240,62,0.092,0.01,0.5,0.002
267,부산,덕포동,부산 사상구 삼덕로 83 덕포초등학교 운동장 북서쪽 화단 (덕포동),128.9862638,35.17360006,정좌표,051,35,0101000020E610000051C719798F1F60404E24DA8638964140,80,0.075,0.024,0.4,0.004
1,서울,강남구,서울 강남구 학동로 426 강남구청 별관 1동,127.0474019,37.51729695,정좌표,02,40,0101000020E61000002B91FAA108C35F40084955C936C24240,84,0.1,0.029,0.5,0.004
9,서울,노원구,서울 노원구 상계로 118 상계2동 주민센터 (23길 17 노원구 원터행복발전소),127.0678627,37.65748117,정좌표,02,37,0101000020E61000009247CBDC57C45F406271CD5728D44240,73,0.087,0.021,0.5,0.004
319,대구,화원읍,대구광역시 달성군 화원읍 인흥1길 12 화원명곡체육공원,128.5039384,35.79821567,정좌표,053,36,0101000020E61000005B666C432010604001E75AEE2BE64140,70,0.114,0.011,0.2,0.002
310,대구,시지동,대구광역시 수성구 노변공원로 52 노변초등학교 (시지동),128.697594,35.83753326,정좌표,053,34,0101000020E610000059FCA6B0521660409281344A34EB4140,63,0.1,0.009,0.3,0.003
235,충북,살미면,충청북도 충주시 살미면 세성양지말길 41 살미면 행정복지센터 주차장 옆,127.9641086,36.90536434,정좌표,043,22,0101000020E6100000B6B28EF4B3FD5F40DFA18BFAE2734240,52,0.078,0.009,0.4,0.002
46,경기,단대동,경기 성남시 수정구 희망로 506번길 21 단대동행정복지센터,127.1556645,37.44964628,정좌표,031,25,0101000020E61000007C293C68F6C95F401DAF61028EB94240,67,0.101,0.022,0.4,0.004
16,서울,성동구,서울 성동구 뚝섬로3길 18 성수1가1동주민센터,127.0496882,37.54203211,정좌표,02,43,0101000020E6100000D17F6A172EC35F407BEAE44E61C54240,85,0.112,0.035,0.5,0.005
162,강원,반곡동(명륜동),"강원도 원주시 배울로 215 (반곡동 1816-2, 배울체육공원 지상) (반곡동)",127.9766435,37.33592899,정좌표,033,38,0101000020E61000007616BD5381FE5F4006EA9CB8FFAA4240,77,0.118,0.015,0.5,0.003
372,경남,물금읍,경상남도 양산시 물금읍 황산로 384 물금읍행정복지센터 옥상,128.9872836,35.31035437,정좌표,055,-1,0101000020E610000012BCC6D3971F60400CA926B1B9A74140,-1,-1,-1,-1,-1
310,대구,시지동,대구광역시 수성구 노변공원로 52 노변초등학교 (시지동),128.697594,35.83753326,정좌표,053,34,0101000020E610000059FCA6B0521660409281344A34EB4140,63,0.1,0.009,0.3,0.003
244,충북,용암동,"충북 청주시 상당구 용암동 1590(중흥로 29), 용암1동 주민센터 3층 옥상 용암1동 주민센터 옥상",127.5012798,36.60884618,정좌표,043,30,0101000020E61000004FC9DEF714E05F4080B2EFABEE4D4240,83,0.086,0.015,0.5,0.002
243,충북,용담동,충북 청주시 상당구 교동로139번길 20 라일락소공원 지상 (용담동),127.5040394,36.63602007,정좌표,043,35,0101000020E61000004FB9782E42E05F40F41F0C1B69514240,78,0.108,0.01,0.3,0.003
266,부산,덕천동,부산 북구 덕천2길 10 덕천초등학교 운동장 남쪽 화단,129.0069448,35.20884422,정좌표,051,33,0101000020E6100000131C4DE438206040E86D4B68BB9A4140,83,0.1,0.014,0.4,0.003
10,서울,도봉구,서울 도봉구 시루봉로2길 34 쌍문동청소년문화의집,127.0290795,37.65421743,정좌표,02,28,0101000020E6100000FA5E4370DCC15F405E299165BDD34240,79,0.089,0.019,0.4,0.004
242,충북,옥천읍,충북 옥천군 옥천읍 중앙로 99(옥천군청 통합관제 센터 옥상) 옥천군청 통합관제 센터 옥상,127.5712521,36.30684827,정좌표,043,29,0101000020E61000005DD1F7648FE45F40FA3DDACD46274240,58,0.099,0.015,0.5,0.003
437,광주,농성동,광주 서구 상무대로 1165 (광주시립미술관 상록전시관 단독건물) 광주시립미술관,126.8892602,35.15456146,정좌표,062,27,0101000020E61000009A289DA3E9B85F4004F67FABC8934140,60,0.106,0.016,0.6,0.006
237,충북,송정동(봉명동),충북 청주시 흥덕구 직지대로 393(송정동) 충북문화재연구원 옥상,127.4368501,36.64456429,정좌표,043,44,0101000020E610000047301F5AF5DB5F4017DC281581524240,95,0.112,0.02,0.4,0.002
252,충북,호암동,충북 충주시 호암동 562(충주시 청소년수련원 옥상)(중원대로 3324) 청소년수련원 옥상,127.9259816,36.96449447,정좌표,043,47,0101000020E6100000A82C544843FB5F4053E9068E747B4240,91,0.129,0.012,0.5,0.003
269,부산,명지동,부산광역시 강서구 명지동 3513-3 봄뜰공원 (명지동),128.9258823,35.10558708,정좌표,051,23,0101000020E610000040CEEAD3A01D604075BD9FE0838D4140,70,0.089,0.016,0.4,0.004
276,부산,전포동,부산광역시 부산진구 전포대로209번길 26 놀이마루 운동장 남편 (전포동),129.0630949,35.15629452,정좌표,051,28,0101000020E61000006C8198DF04226040D6F8757501944140,78,0.091,0.016,0.3,0.003
238,충북,영동읍,충청북도 영동군 영동읍 계산로2길 25 레인보우도서관 옥상,127.7777908,36.17275149,정좌표,043,27,0101000020E61000004D481053C7F15F4051F187B81C164240,55,0.093,0.009,0.3,0.002
317,대구,태전동,대구 북구 태전동 1076-5 (태암초등학교)(칠곡중앙대로 52길 56) 태암초등학교 남관 4층 옥상,128.5508201,35.92506393,인근좌표,053,29,0101000020E6100000586F7951A01160409507AF7E68F64140,64,0.098,0.017,0.5,0.003
240,충북,오송읍,충청북도 청주시 흥덕구 오송읍 오송생명로 150 오송읍 사무소 별관 지상,127.3251295,36.63211687,정좌표,043,39,0101000020E6100000C05DF6EBCED45F402FF3A134E9504240,80,0.121,0.015,0.4,0.003
393,경남,함양읍,경상남도 함양군 함양읍 고운로 35 함양군청 민원봉사과 옥상,127.7245571,35.5202403,정좌표,055,13,0101000020E61000006A25BE245FEE5F40D647F13B97C24140,44,0.074,0.01,0.3,0.003
270,부산,부곡동,부산 금정구 부곡로156번길 7 부곡2동 주민센터 옥상 (부곡동),129.0926972,35.22983656,정좌표,051,28,0101000020E6100000C94D1E60F72260400550CE486B9D4140,60,0.093,0.017,0.4,0.003
245,충북,음성읍,충청북도 음성군 음성읍 중앙로 49 읍성보건소 옥상,127.6888784,36.92884066,정좌표,043,38,0101000020E6100000EEBA6D9516EC5F4091F23040E4764240,61,0.096,0.011,0.4,0.003
225,충북,가덕면,충청북도 청주시 상당구 가덕면 보청대로 4650 가덕면사무소 앞쪽 부지,127.5483141,36.5534529,정좌표,043,32,0101000020E6100000E2DB059417E35F402DB06C8BD7464240,60,0.092,0.009,0.4,0.002
235,충북,살미면,충청북도 충주시 살미면 세성양지말길 41 살미면 행정복지센터 주차장 옆,127.9641086,36.90536434,정좌표,043,22,0101000020E6100000B6B28EF4B3FD5F40DFA18BFAE2734240,52,0.078,0.009,0.4,0.002
4,서울,강서구,서울 강서구 강서로 45 다길 71 화곡3동 푸른들청소년도서관,126.835182,37.54467538,정좌표,02,40,0101000020E61000004E0D349F73B55F40A80440ECB7C54240,80,0.084,0.033,0.5,0.004
236,충북,소이면,충청북도 음성군 소이면 소이로 409 소이면전천후게이트볼장 공터,127.7576502,36.92364975,정좌표,043,16,0101000020E6100000B4B343577DF05F40B39AAE273A764240,68,0.1,0.01,0.5,0.003
247,충북,중앙탑면,충청북도 충주시 중앙탑면 기업도시로 237 서충주 국공립어린이집 측면부지,127.8229539,37.01681552,정좌표,043,32,0101000020E610000067A7D546ABF45F408D3BCE0227824240,58,0.117,0.016,0.6,0.002
302,대구,내당동,대구광역시 서구 서대구로3길 46 내당4동 행정복지센터 3층 옥상 (내당동),128.5518431,35.85902049,정좌표,053,43,0101000020E6100000BF60DCB2A81160406B922762F4ED4140,84,0.12,0.014,0.3,0.002
307,대구,산격동,대구광역시 북구 연암로 40 시청별관 105동 3층 옥상 (산격동),128.6014574,35.89267855,정좌표,053,30,0101000020E6100000FDDD96233F1360409C0B6D4A43F24140,70,0.108,0.011,0.3,0.003
216,대전,노은동,대전 유성구 노은동로 87번길 89(노은1동 주민센터) 노은1동 주민센터 3층 옥상,127.318439,36.36826639,정좌표,042,26,0101000020E610000057B1F84D61D45F400CA2625A232F4240,62,0.083,0.01,0.3,0.003
267,부산,덕포동,부산 사상구 삼덕로 83 덕포초등학교 운동장 북서쪽 화단 (덕포동),128.9862638,35.17360006,정좌표,051,35,0101000020E610000051C719798F1F60404E24DA8638964140,80,0.075,0.024,0.4,0.004
249,충북,진천읍,충북 진천군 진천읍 상산로 65 읍내리 370-1 진천읍사무소 옥상,127.4412732,36.85498237,정좌표,043,34,0101000020E61000007BA6F2D13DDC5F403EE7F20F706D4240,73,0.111,0.014,0.6,0.003
282,부산,화명동,부산광역시 북구 용당로16번길 22 장미원 (화명동),129.0089209,35.23289031,정좌표,051,22,0101000020E610000007B87B1449206040AE808459CF9D4140,59,0.094,0.012,-1,-1
393,경남,함양읍,경상남도 함양군 함양읍 고운로 35 함양군청 민원봉사과 옥상,127.7245571,35.5202403,정좌표,055,13,0101000020E61000006A25BE245FEE5F40D647F13B97C24140,44,0.074,0.01,0.3,0.003
317,대구,태전동,대구 북구 태전동 1076-5 (태암초등학교)(칠곡중앙대로 52길 56) 태암초등학교 남관 4층 옥상,128.5508201,35.92506393,인근좌표,053,29,0101000020E6100000586F7951A01160409507AF7E68F64140,64,0.098,0.017,0.5,0.003
62,경기,본오동,경기 안산시 상록구 각골길 75 본오2동행정복지센터,127.9618361,35.07068573,인근좌표,031,20,0101000020E61000002E6700B98EFD5F406B52E13A0C894140,61,0.088,0.024,0.4,0.002
67,경기,부림동,경기 안양시 동안구 시민대로 235 안양시청 민원실,126.9577126,37.39439354,정좌표,031,40,0101000020E6100000E5FDC9294BBD5F40DF06CE7C7BB24240,89,0.081,0.027,0.5,0.005
56,경기,백석읍,경기 양주시 백석읍 꿈나무로 199 꿈나무도서관,126.9872761,37.79236815,정좌표,031,28,0101000020E6100000D66718882FBF5F402E52CD516CE54240,80,0.104,0.012,0.5,0.005
92,경기,연천,경기 연천군 연천읍 차현로 58 연천군청 지역경제과,127.0762768,38.09646984,정좌표,031,29,0101000020E6100000635C16B8E1C45F40D8ECAB1F590C4340,78,0.107,0.008,0.5,0.005
66,경기,부곡동1,경기 안산시 상록구 성호로 326 부곡동 행정복지센터,126.861092,37.33178834,정좌표,031,27,0101000020E610000039B69E211CB75F4040BF520A78AA4240,88,0.087,0.019,0.4,0.005
104,경기,원시동,경기 안산시 단원구 산단로 112 근로복지관 민주노총,126.7885109,37.30529399,정좌표,031,34,0101000020E610000088026CF676B25F40915B9BDF13A74240,106,0.081,0.041,0.5,0.005
91,경기,양평읍,경기도 양평군 양평읍 마유산로 17 양평군보건소 옥상,127.486681,37.49703536,정좌표,031,22,0101000020E61000006AA510C825DF5F40EA13CCDA9EBF4240,52,0.085,0.012,0.4,0.003
26,경기,가남읍,경기도 여주시 가남읍 태평중앙1길 20 가남읍행정복지센터 옥상,127.5448773,37.20166023,정좌표,031,50,0101000020E61000004CF50945DFE25F407E609E00D0994240,92,0.119,0.012,0.4,0.004
95,경기,오산동,경기 오산시 경기동로 51 오산고용복지플러스센터,127.0773162,37.15888305,정좌표,031,25,0101000020E6100000DD9CA5BFF2C45F40C2D19F4756944240,68,0.101,0.015,0.4,0.003
98,경기,와부읍,경기도 남양주시 와부읍 도곡길 7 덕소중학교 후관동 옥상,127.2270733,37.58086262,정좌표,031,39,0101000020E6100000DE52735E88CE5F40372FD2B459CA4240,97,0.106,0.023,0.5,0.003
119,경기,진접읍,경기도 남양주시 진접읍 금강로 1509-26 진접오남행정복지센터 옥상,127.1898614,37.72632699,정좌표,031,32,0101000020E610000075F16DB026CC5F4045206648F8DC4240,95,0.076,0.018,0.4,0.003
104,경기,원시동,경기 안산시 단원구 산단로 112 근로복지관 민주노총,126.7885109,37.30529399,정좌표,031,34,0101000020E610000088026CF676B25F40915B9BDF13A74240,106,0.081,0.041,0.5,0.005
36,경기,공도읍,경기도 안성시 공도읍 공도4로 8 공도읍행정복지센터 옥상,127.1727888,37.00117402,정좌표,031,26,0101000020E61000005E47C1F80ECB5F409FC0647826804240,76,0.12,0.013,0.4,0.004
95,경기,오산동,경기 오산시 경기동로 51 오산고용복지플러스센터,127.0773162,37.15888305,정좌표,031,25,0101000020E6100000DD9CA5BFF2C45F40C2D19F4756944240,68,0.101,0.015,0.4,0.003
444,광주,주월동,광주 남구 회서로 21번가길 13 주월1동 주민센터,126.8933326,35.13193559,정좌표,062,25,0101000020E6100000D75C7F5C2CB95F403E1DF243E3904140,68,0.108,0.015,0.6,0.006
23,서울,종로구,"서울 종로구 종로35가길 19 종로5,6가 동 주민센터",127.0050321,37.57206209,정좌표,02,37,0101000020E6100000883B287252C05F406CEA9F5439C94240,97,0.095,0.021,0.5,0.005
386,경남,월영동,경남 창원시 마산합포구 월영동16길 22 마산합포구도서관 옥상 (해운동),128.5573497,35.19005738,정좌표,055,36,0101000020E6100000EFBD09CFD511604052BBDBCC53984140,67,0.096,0.033,0.5,0.005
394,경남,합천읍,경남 합천군 합천읍 중앙로 61 합천읍사무소 종량제 창고 옥상,128.157917,35.56598689,정좌표,055,-1,0101000020E610000070CFF3A70D056040E341274272C84140,-1,0.09,-1,-1,-1
219,대전,문창동,대전 중구 보문로 20번길 38(문창동 주민센터) 문창동 주민센터,127.4379209,36.31620811,정좌표,042,11,0101000020E610000008EF61E506DC5F400997E18179284240,45,0.087,0.014,0.5,0.003
54,경기,목감동,경기도 시흥시 솔고개길 33 목감공원 지상 (목감동),126.8612796,37.38559125,정좌표,031,23,0101000020E610000091AD78341FB75F40D72FD80D5BB14240,68,0.082,0.017,0.3,0.005
113,경기,정왕동,경기 시흥시 정왕대로 233번길 19 정왕보건지소,126.7401524,37.34672014,정좌표,031,53,0101000020E610000094032CA85EAF5F401015575361AC4240,122,0.076,0.054,0.6,0.005
48,경기,대부동,경기 안산시 단원구 대부중앙로 97-9 대부동 행정복지센터,126.5847945,37.24359445,정좌표,031,53,0101000020E61000005D18E9456DA55F405A1E5A1A2E9F4240,99,0.112,0.043,0.5,0.004
64,경기,봉산동,경기 안성시 시청길 25 안성시청 식당동,127.2803041,37.00734201,정좌표,031,38,0101000020E6100000D29B9B80F0D15F40206B3E95F0804240,60,0.115,0.014,0.4,0.003
26,경기,가남읍,경기도 여주시 가남읍 태평중앙1길 20 가남읍행정복지센터 옥상,127.5448773,37.20166023,정좌표,031,50,0101000020E61000004CF50945DFE25F407E609E00D0994240,92,0.119,0.012,0.4,0.004
49,경기,대신면,경기도 여주시 대신면 율촌1길 12-10 대신도서관 옥상,127.5844577,37.37146563,정좌표,031,31,0101000020E61000004ED944C167E55F4012388E2F8CAF4240,74,0.113,0.012,0.3,0.008
206,충남,인주면,충청남도 아산시 인주면 인주산단로 23-28 인주면 측정소,126.8792255,36.87315139,정좌표,041,44,0101000020E6100000CB13083B45B85F40E340BC6CC36F4240,98,0.09,0.031,0.4,0.009
137,인천,구월동,인천 남동구 구월말로 7(구월동) 구월4동 행정복지센터 옥상,126.7240627,37.44963442,정좌표,032,40,0101000020E61000003930140B57AE5F402987E49E8DB94240,78,0.065,0.039,0.6,0.004
419,전남,영암읍,전라남도 영암군 영암읍 낭주로 202-2 영암 종합스포츠타운 야구장,126.7012941,34.8072483,정좌표,061,24,0101000020E61000002D18A600E2AC5F4034208CE953674140,53,0.079,0.014,-1,0.006
77,경기,소사본동,경기 부천시 경인옛로 73 소사어울마당 소향관,126.7999474,37.48004678,정좌표,031,49,0101000020E61000004B61945632B35F403753422C72BD4240,105,0.079,0.029,0.5,0.004
61,경기,복정동,경기 성남시 수정구 성남대로 1416번길 22 복정정수장,127.1286998,37.45627984,인근좌표,031,41,0101000020E61000001D00169E3CC85F40E34FB76067BA4240,77,0.111,0.02,0.6,0.003
72,경기,상대원동,경기 성남시 중원구 둔촌대로 425 상대원1동행정복지센터,127.1643862,37.43321349,정좌표,031,19,0101000020E61000007A3AB24D85CA5F4036DE258A73B74240,66,0.088,0.027,0.4,0.002
66,경기,부곡동1,경기 안산시 상록구 성호로 326 부곡동 행정복지센터,126.861092,37.33178834,정좌표,031,27,0101000020E610000039B69E211CB75F4040BF520A78AA4240,88,0.087,0.019,0.4,0.005
88,경기,안양2동,경기 안양시 만안구 안양로 384번길 50 안양2동 행정복지센터,126.9178325,37.40508688,정좌표,031,-1,0101000020E61000002EAD86C4BDBA5F40C0D10AE3D9B34240,-1,-1,-1,-1,-1
49,경기,대신면,경기도 여주시 대신면 율촌1길 12-10 대신도서관 옥상,127.5844577,37.37146563,정좌표,031,31,0101000020E61000004ED944C167E55F4012388E2F8CAF4240,74,0.113,0.012,0.3,0.008
204,충남,예산군,충남 예산군 예산읍 신흥길 63 (다목적 노인회관 옥상),126.8489273,36.67740506,정좌표,041,49,0101000020E61000009F8B2BD354B65F40266C8135B5564240,89,0.123,0.016,0.5,0.006
68,경기,부발읍,경기도 이천시 부발읍 무촌로 117 부발보건지소 옥상,127.4866497,37.28327452,정좌표,031,34,0101000020E6100000ED86C84425DF5F405598E75642A44240,86,0.115,0.013,0.4,0.005
288,울산,범서읍,울산광역시 울주군 범서읍 당앞로 14-50 천상정수사업소,129.227935,35.56907425,인근좌표,052,49,0101000020E6100000A453573E4B276040745FCE6CD7C84140,90,0.112,0.036,0.5,0.014
11,서울,동대문구,서울 동대문구 천호대로13길 43 용두초등학교,127.0289621,37.57615297,정좌표,02,35,0101000020E6100000B414DA83DAC15F4057D26961BFC94240,82,0.099,0.025,0.5,0.004
407,전남,벌교읍,전남 보성군 벌교읍 체육공원길 35 벌교읍 측정소,127.3476659,34.84185237,정좌표,061,20,0101000020E6100000CD9B792840D65F40E49A86D1C16B4140,54,0.082,0.006,0.5,0.003
22,서울,은평구,서울 은평구 진흥로 215 (한국환경산업기술원 온실동2층 ),126.9329377,37.6104943,정좌표,02,-1,0101000020E610000026AD5340B5BB5F407C725EAD24CE4240,-1,-1,-1,-1,-1
25,서울,중랑구,서울 중랑구 용마산로 369 건강가정지원센터,127.0940384,37.58491578,정좌표,02,31,0101000020E61000005D24A3B904C65F40D6013185DECA4240,81,0.088,0.032,0.5,0.004
356,경북,칠곡군,경북 칠곡군 왜관읍 관문로1길 30 칠곡군 보건소 건강증진센터 옥상,128.4185081,35.9909643,정좌표,054,29,0101000020E61000008E53196B640D604074000EEBD7FE4140,74,0.101,0.011,0.3,0.005
412,전남,순천만,전남 순천시 순천만길 513-25(대대동) 순천만 자연생태관 옥상,127.5084354,34.88608315,정좌표,061,22,0101000020E61000003CC8A1348AE05F40B164332C6B714140,48,0.103,0.006,0.5,0.002
422,전남,율촌면,전라남도 여수시 율촌면 동산개길 2 율촌면 보건지소,127.5789026,34.88209911,정좌표,061,22,0101000020E610000071A47DBD0CE55F40EEA3A69FE8704140,60,0.076,0.01,0.6,0.003
178,강원,황지동,강원도 태백시 태붐로 21 태백시청 부지 내 지상 (황지동),128.9863655,37.1647458,정좌표,033,-1,0101000020E6100000E38C614E901F6040A193EF6316954240,-1,-1,-1,-1,-1
428,전남,진상면,전남 광양시 진상면 신시길 227(섬거리) 진상면사무소,127.7195172,35.02003726,정좌표,061,23,0101000020E610000035BADE910CEE5F406333B89490824140,68,0.064,0.012,0.3,0.007
133,경기,화도읍,경기도 남양주시 화도읍 비룡로 59 화도수동행정복지센터,127.3007107,37.65784748,정좌표,031,25,0101000020E6100000AA8317D83ED35F40922DA25834D44240,65,0.093,0.009,0.3,0.003
60,경기,보산동,경기 동두천시 싸리말로 28 보산동행정복지센터,127.0613143,37.9176387,정좌표,031,23,0101000020E6100000BD51D092ECC35F40A005572F75F54240,77,0.093,0.014,0.4,0.004
45,경기,내동,경기 부천시 삼작로 109 신흥동주민센터 앞 도로변,126.7733423,37.52046031,정좌표,031,60,0101000020E610000042C7B3707EB15F40732885719EC24240,128,0.078,0.046,0.6,0.005
42,경기,기흥,경기 용인시 기흥구 관곡로 95 기흥구청,127.1146892,37.28044759,정좌표,031,32,0101000020E610000015CD5E1157C75F4061A5E5B4E5A34240,80,0.112,0.02,0.4,0.003
21,서울,용산구,서울 용산구 한남대로 136 서울특별시중부기술교육원,127.0048165,37.53983677,정좌표,02,43,0101000020E6100000CC7EDDE94EC05F40052A0C5F19C54240,85,0.078,0.022,0.5,0.004
164,강원,석사동,강원 춘천시 외솔길 17(석사동 322-1) 강원도 개발공사 2층 옥상,127.7500586,37.85679041,정좌표,033,-1,0101000020E61000005945C9F500F05F40FC3CE34EABED4240,-1,-1,-1,-1,-1
313,대구,이현동,대구 서구 이현동 48-60 (중리초등학교)(국채보상로 135) 중리초등학교,128.5453459,35.86941002,정좌표,053,40,0101000020E61000003FB03E79731160407B5BD9D348EF4140,75,0.119,0.02,0.4,0.003
291,울산,삼산동,울산 남구 삼산중로 131번길 36 삼산동 주민센터 옥상,129.3320285,35.54451335,정좌표,052,55,0101000020E6100000E19A3BFA9F2A6040223E0B9DB2C54140,100,0.093,0.037,0.5,0.009
284,울산,농소동,울산광역시 북구 호수중앙로 14 농소운동장 주차장 (창평동),129.3587727,35.62177633,정좌표,052,39,0101000020E610000053A6E2107B2B60407263E55D96CF4140,64,0.117,0.014,0.8,0.007
290,울산,삼남읍,울산광역시 울주군 삼남읍 서향교1길 67-12 울주군보건소 옥상,129.1137363,35.55836372,정좌표,052,44,0101000020E6100000C71B4FBAA323604022565E7678C74140,90,0.129,0.019,0.5,0.01
293,울산,성남동,울산 중구 새즈믄해거리 28 농협 성남동 지점,129.3205004,35.55628939,정좌표,052,47,0101000020E61000005B0B0E8A412A6040B694A07D34C74140,87,0.093,0.032,0.5,0.007
286,울산,덕신리,울산광역시 울주군 온산읍 덕신로 229 고려아연(주) 사택 주차장,129.3067251,35.43389513,정좌표,052,51,0101000020E6100000982B28B1D0296040319F28E089B74140,93,0.092,0.019,0.6,0.006
43,경기,김량장동,경기 용인시 처인구 금령로 50 처인구청,127.2022038,37.23464089,정좌표,031,18,0101000020E6100000200835E8F0CC5F405B6D72B6089E4240,65,0.089,0.012,0.3,0.003
271,부산,수정동,부산 동구 구청로 1 동구청 지상,129.0449088,35.12933073,정좌표,051,28,0101000020E6100000AF6994E46F216040E1DBCBE88D904140,88,0.067,0.039,0.4,0.006
297,울산,여천동(울산),울산 남구 부두로 9 현대자동차 엔진공장,129.363077,35.51425958,정좌표,052,39,0101000020E6100000C11DA8539E2B60409AE00642D3C14140,75,0.076,0.034,0.5,0.004
300,울산,화산리,울산 울주군 온산읍 산암로 94 풍산금속 야외 주차장,129.340615,35.43817924,정좌표,052,47,0101000020E6100000DEB06D51E62A604006CBE04116B84140,102,0.073,0.028,0.9,0.014
262,부산,당리동,부산 사하구 제석로 41 낙동초등학교 운동장 동편 화단 (당리동),128.9730024,35.10593081,정좌표,051,34,0101000020E6100000BFDDEDD5221F60405D4B0A248F8D4140,86,0.076,0.039,0.4,0.004
208,충남,정산면,충청남도 청양군 정산면 칠갑산로 1861 정산커뮤니티센터,126.9455855,36.41499452,정좌표,041,20,0101000020E610000099840B7984BC5F40A9B5598A1E354240,38,0.113,0.008,0.4,0.004
296,울산,약사동,울산 중구 종가로 560 약사고등학교,129.3359984,35.57354575,정좌표,052,33,0101000020E61000004470B77FC02A6040418177F269C94140,82,0.098,0.03,0.5,0.006
96,경기,오정동,경기 부천시 성오로 172 오정어울마당 아트홀,126.7965348,37.52772812,정좌표,031,0,0101000020E61000000F08196DFAB25F402F4A54988CC34240,100,0.081,0.034,0.6,0.006
46,경기,단대동,경기 성남시 수정구 희망로 506번길 21 단대동행정복지센터,127.1556645,37.44964628,정좌표,031,25,0101000020E61000007C293C68F6C95F401DAF61028EB94240,67,0.101,0.022,0.4,0.004
14,서울,서대문구,서울 서대문구 세검정로4길 32(홍제3동 주민센터) ,126.9496893,37.59376361,정좌표,02,37,0101000020E61000001D37A1B5C7BC5F40A1402B7200CC4240,71,0.09,0.022,0.4,0.005
264,부산,대연동,부산 남구 수영로 196번길 80 부산공업고등학교 공동실습관 옥상,129.0884204,35.1308881,정좌표,051,25,0101000020E610000093C90457D4226040C177F6F0C0904140,71,0.09,0.01,0.4,0.003
263,부산,대신동,부산 서구 대신로 150 부산국민체육센터 옥상,129.015768,35.11732297,정좌표,051,-1,0101000020E6100000598AE42B812060401B9C6770048F4140,-1,0.089,-1,-1,-1
210,충남,청양읍,충남 청양군 청양읍 칠갑산로7길 54 (청양군 보건의료원 옥상),126.8049362,36.45501472,정좌표,041,16,0101000020E610000075971F1384B35F409FCC1EEC3D3A4240,48,0.094,0.008,0.3,0.005
314,대구,지산동,대구 수성구 지산동 761-11(한국환경공단) (무학로 209) 한국환경공단,128.6316753,35.83042827,정좌표,053,21,0101000020E61000001D661EAF3614604074A93A794BEA4140,58,0.083,0.015,-1,-1
309,대구,수창동,대구 중구 수창동 73 (수창초등학교)(달성로 22길 30) 수창초등학교,128.5843059,35.87439232,정좌표,053,30,0101000020E6100000846B49A2B212604004236916ECEF4140,62,0.094,0.027,0.3,0.002
196,충남,서천읍,충남 서천군 서천읍 서천로14번길 20 서천읍 문예의전당 주차장,126.6983681,36.07636541,정좌표,041,24,0101000020E610000075841D10B2AC5F40713F7D57C6094240,56,0.099,0.018,0.5,0.004
190,충남,둔포면,충청남도 아산시 둔포면 중앙공원로 43 둔포면 측정소,127.0588543,36.91946484,정좌표,041,40,0101000020E6100000A76ED344C4C35F409ACF1C06B1754240,81,0.109,0.011,0.3,0.005
422,전남,율촌면,전라남도 여수시 율촌면 동산개길 2 율촌면 보건지소,127.5789026,34.88209911,정좌표,061,22,0101000020E610000071A47DBD0CE55F40EEA3A69FE8704140,60,0.076,0.01,0.6,0.003
423,전남,장성읍,전남 장성군 장성읍 영천로 211 장성읍사무소 옥상,126.7854901,35.30333692,정좌표,061,26,0101000020E61000003CB5447845B25F40E18883BED3A64140,67,0.097,0.011,0.5,0.006
431,전남,해남읍,전라남도 해남군 해남읍 남부순환로 114 해남읍사무소,126.5994049,34.56543006,정좌표,061,22,0101000020E6100000FAA35EA65CA65F400AF01F0360484140,52,0.082,0.007,0.4,0.004
77,경기,소사본동,경기 부천시 경인옛로 73 소사어울마당 소향관,126.7999474,37.48004678,정좌표,031,49,0101000020E61000004B61945632B35F403753422C72BD4240,105,0.079,0.029,0.5,0.004
116,경기,죽산면,경기도 안성시 죽산면 남부길 60 동안성시민복지센터 옥상,127.4244598,37.07467039,정좌표,031,41,0101000020E6100000DEDD6F592ADB5F40C983A1CC8E894240,95,0.114,0.009,0.4,0.003
130,경기,호계동,경기 안양시 동안구 경수대로 665번길 11 호계2동 행정복지센터,126.9528196,37.38115353,정좌표,031,27,0101000020E6100000383F0FFFFABC5F406F0D8DA3C9B04240,94,0.068,0.034,0.4,0.005
99,경기,용문면,경기 양평군 용문면 용문로 395 용문도서관,127.5962182,37.48717995,정좌표,031,38,0101000020E6100000EB91617028E65F402A42A0E95BBE4240,84,0.083,0.038,0.4,0.005
43,경기,김량장동,경기 용인시 처인구 금령로 50 처인구청,127.2022038,37.23464089,정좌표,031,18,0101000020E6100000200835E8F0CC5F405B6D72B6089E4240,65,0.089,0.012,0.3,0.003
320,경북,3공단,경북 포항시 남구 대송면 철강산단로130번길 29 3공단 배수지,129.3747663,35.96455305,인근좌표,054,35,0101000020E61000009344E515FE2B6040E7806E7976FB4140,86,0.066,0.017,0.7,0.011
175,강원,평창읍,강원 평창군 평창읍 종부로 61(종부리 504) 평창군보건의료원 2층 옥상,128.3889885,37.36090665,정좌표,033,-1,0101000020E6100000A5C00298720C60405754693032AE4240,60,0.077,0.012,0.5,0.003
295,울산,야음동,울산 남구 대암로 90번길 27 울산세관,129.3262057,35.52876102,정좌표,052,42,0101000020E61000009AA8EF46702A60405926EC70AEC34140,88,0.098,0.028,0.5,0.007
366,경남,내서읍,경상남도 창원시 마산회원구 내서읍 광려로 8 삼계근린공원 지상,128.5031,35.22609028,정좌표,055,11,0101000020E6100000C3D32B65191060409145BB86F09C4140,37,0.086,0.013,0.5,0.003
396,경남,회원동,경남 창원시 마산회원구 회원동 11번길 7 (회원1동 주민센터),128.5769538,35.21997946,인근좌표,055,44,0101000020E6100000B2C9D06776126040F13E7549289C4140,99,0.069,0.039,0.4,0.004
394,경남,합천읍,경남 합천군 합천읍 중앙로 61 합천읍사무소 종량제 창고 옥상,128.157917,35.56598689,정좌표,055,-1,0101000020E610000070CFF3A70D056040E341274272C84140,-1,0.09,-1,-1,-1
119,경기,진접읍,경기도 남양주시 진접읍 금강로 1509-26 진접오남행정복지센터 옥상,127.1898614,37.72632699,정좌표,031,32,0101000020E610000075F16DB026CC5F4045206648F8DC4240,95,0.076,0.018,0.4,0.003
72,경기,상대원동,경기 성남시 중원구 둔촌대로 425 상대원1동행정복지센터,127.1643862,37.43321349,정좌표,031,19,0101000020E61000007A3AB24D85CA5F4036DE258A73B74240,66,0.088,0.027,0.4,0.002
81,경기,수내동,경기 성남시 분당구 분당로 50 분당구청,127.1194632,37.38236269,정좌표,031,30,0101000020E6100000D544FA48A5C75F405B61B842F1B04240,82,0.103,0.019,0.5,0.003
56,경기,백석읍,경기 양주시 백석읍 꿈나무로 199 꿈나무도서관,126.9872761,37.79236815,정좌표,031,28,0101000020E6100000D66718882FBF5F402E52CD516CE54240,80,0.104,0.012,0.5,0.005
12,서울,동작구,서울 동작구 사당로16아길 6 사당4동 주민센터,126.9716328,37.48097418,정좌표,02,39,0101000020E610000023EE563B2FBE5F4003A9DA8F90BD4240,96,0.088,0.031,0.5,0.004
305,대구,만촌동,대구 수성구 만촌2동 934 (동원초등학교)(국채보상로 1000) 동원초등학교,128.6396539,35.8654908,정좌표,053,29,0101000020E610000049A8740B78146040947E0C67C8EE4140,66,0.107,0.018,0.5,0.004
192,충남,배방읍,충남 아산시 배방읍 배방로 38 배방읍사무소 옥상,127.0536366,36.77388909,정좌표,041,36,0101000020E610000098B734C86EC35F40FE2336CC0E634240,75,0.092,0.013,0.3,0.004
425,전남,장흥읍,전라남도 장흥군 장흥읍 흥성로 23 정남진도서관,126.9066278,34.67443179,정좌표,061,22,0101000020E61000003EA99B3006BA5F4064B7E8C753564140,63,0.104,0.01,0.5,0.005
430,전남,함평읍,전라남도 함평군 함평읍 중앙길 39 함평군노인복지회관,126.5226253,35.06191356,정좌표,061,35,0101000020E6100000FBE362B172A15F4081B095C8EC874140,69,0.093,0.011,0.6,0.004
121,경기,천천동,경기 수원시 장안구 서부로 2066 성균관대학교 제2공학관,126.9723733,37.29221412,정좌표,031,24,0101000020E61000003BC0385D3BBE5F402A6AB44567A54240,81,0.099,0.022,0.3,0.003
91,경기,양평읍,경기도 양평군 양평읍 마유산로 17 양평군보건소 옥상,127.486681,37.49703536,정좌표,031,22,0101000020E61000006AA510C825DF5F40EA13CCDA9EBF4240,52,0.085,0.012,0.4,0.003
10,서울,도봉구,서울 도봉구 시루봉로2길 34 쌍문동청소년문화의집,127.0290795,37.65421743,정좌표,02,28,0101000020E6100000FA5E4370DCC15F405E299165BDD34240,79,0.089,0.019,0.4,0.004
366,경남,내서읍,경상남도 창원시 마산회원구 내서읍 광려로 8 삼계근린공원 지상,128.5031,35.22609028,정좌표,055,11,0101000020E6100000C3D32B65191060409145BB86F09C4140,37,0.086,0.013,0.5,0.003
385,경남,웅남동,경남 창원시 성산구 공단로 303 (효성굿스프링스),128.656742,35.21738568,정좌표,055,17,0101000020E61000001C7DCC0704156040FF1B414BD39B4140,86,0.09,0.025,0.7,0.004
198,충남,성연면,충남 서산시 성연면 마루들길 15 보건지소 옥상,126.4613063,36.83915592,정좌표,041,43,0101000020E610000015FCDB0A869D5F4089521076696B4240,102,0.12,0.022,0.5,0.005
429,전남,태인동,전남 광양시 태인길 376(태인동) 태인폐정수장 사무실,127.7570524,34.94187489,정좌표,061,40,0101000020E6100000EFD6E88B73F05F409FBC3C5B8F784140,104,0.042,0.058,1.1,0.032
328,경북,대송면,경북 포항시 남구 대송면 장동홍계길19 (대송면사무소 내) 대송면사무소,129.3599409,35.96851358,정좌표,054,34,0101000020E6100000C53FC7A2842B60407BEAC340F8FB4140,86,0.072,0.025,0.6,0.011
367,경남,내일동,경상남도 밀양시 중앙로 346 내일동주민센터 (내일동),128.7542452,35.49370317,정좌표,055,31,0101000020E61000004865D4C622186040708A5CAA31BF4140,78,0.103,0.016,0.3,0.004
387,경남,의령읍,경남 의령군 의령읍 의병로8길 44 서동생활공원 지상,128.2570964,35.31564477,정좌표,055,23,0101000020E61000006BBD3A223A086040D7263E0C67A84140,47,0.071,0.007,0.3,0.003
385,경남,웅남동,경남 창원시 성산구 공단로 303 (효성굿스프링스),128.656742,35.21738568,정좌표,055,17,0101000020E61000001C7DCC0704156040FF1B414BD39B4140,86,0.09,0.025,0.7,0.004
198,충남,성연면,충남 서산시 성연면 마루들길 15 보건지소 옥상,126.4613063,36.83915592,정좌표,041,43,0101000020E610000015FCDB0A869D5F4089521076696B4240,102,0.12,0.022,0.5,0.005
416,전남,여천동(여수),전남 여수시 무선로 190(선원동) 여천동 주민센터 뒷편,127.6524527,34.77751751,정좌표,061,17,0101000020E6100000F62BF8C8C1E95F4039C29AB185634140,52,0.056,0.015,0.5,0.003
57,경기,백암면,경기도 용인시 처인구 백암면 백암로185번길 8-11 백암면주민자치센터,127.3746706,37.16364946,정좌표,031,21,0101000020E61000007471659AFAD75F40A25A2B77F2944240,79,-1,-1,-1,-1
374,경남,북부동,경상남도 양산시 북안남5길 21 중앙동주민센터 (북부동),129.0408452,35.34585635,정좌표,055,24,0101000020E61000005BC6979A4E216040952E580545AC4140,62,0.106,0.015,0.5,0.006
381,경남,상봉동,경남 진주시 비봉로 85번길 12 (상봉동 주민센터 상봉현장 민원실),128.078043,35.19828645,정좌표,055,-1,0101000020E6100000D19508547F026040B6FE4C7361994140,-1,-1,-1,-1,-1
389,경남,정촌면,경상남도 진주시 정촌면 예하리 1340 예하초등학교 앞 공원 지상,128.1004971,35.12489304,정좌표,055,22,0101000020E6100000F9BAB145370360402626C17EFC8F4140,55,0.094,0.012,0.7,0.003
205,충남,이원면,충남 태안군 이원면 분지길 14 (이원면사무소 1층 나동 옥상),126.2803046,36.86964163,정좌표,041,68,0101000020E6100000C67AB482F0915F40890BBC6A506F4240,110,0.098,0.033,0.5,0.007
136,인천,고잔,인천 남동구 은봉로 82 인천지방중소벤처기업청옥상,126.6993175,37.40957425,정좌표,032,57,0101000020E61000005001309EC1AC5F405184D4ED6CB44240,102,0.063,0.084,0.7,0.005
65,경기,부곡3동,경기도 의왕시 덕영대로 166 부곡청소년문화의 집 (삼동),126.9573054,37.31771145,정좌표,031,-1,0101000020E61000003052DE7D44BD5F4049A8CFC4AAA84240,-1,-1,-1,-1,-1
375,경남,사천읍,경남 사천시 사천읍 읍내로 52 (사천읍사무소),128.0911029,35.0826922,정좌표,055,21,0101000020E61000004402A150EA026040305173A8958A4140,100,0.104,0.012,0.4,0.005
377,경남,산청읍,경남 산청군 산청읍 산엔청로 6 산청군 여성회관 옥상,127.8740908,35.41497026,정좌표,055,20,0101000020E610000002EF891AF1F75F409DC1D7BE1DB54140,40,0.094,0.006,0.3,0.003
372,경남,물금읍,경상남도 양산시 물금읍 황산로 384 물금읍행정복지센터 옥상,128.9872836,35.31035437,정좌표,055,-1,0101000020E610000012BCC6D3971F60400CA926B1B9A74140,-1,-1,-1,-1,-1
368,경남,대안동,경남 진주시 진주대로 1052 (중소기업은행),128.0845192,35.19355192,정좌표,055,40,0101000020E61000004AFC9B61B40260402F3D2F4FC6984140,51,0.086,0.019,0.6,0.003
391,경남,창녕읍,경남 창녕군 창녕읍 우포2로 1189-35 정신건강복지센터 옥상,128.4900535,35.54364673,정좌표,055,-1,0101000020E61000004A79AD84AE0F6040B3F64E3796C54140,-1,-1,-1,-1,-1
362,경남,경화동,경남 창원시 진해구 경화로16번길 31 (병암동주민센터),128.6895513,35.15496996,정좌표,055,30,0101000020E6100000424DE3CD10166040FE073F0ED6934140,93,0.066,0.026,0.5,0.005
360,경남,가야읍,경남 함안군 가야읍 함안대로 505 가야읍행정복지센터 옥상,128.4086111,35.27224105,정좌표,055,21,0101000020E61000000BE99557130D6040793073CBD8A24140,57,0.088,0.008,0.4,0.003
82,경기,수지,경기 용인시 수지구 수지로 342번길3 풍덕천1동주민자치센터,127.0950286,37.32795736,정좌표,031,17,0101000020E6100000D24BD6F214C65F405CD7BB81FAA94240,72,0.1,0.026,0.4,0.003
53,경기,모현읍,경기도 용인시 처인구 모현읍 독점로 31-6 모현읍주민자치센터,127.2423615,37.32953269,정좌표,031,30,0101000020E6100000CF13CFD982CF5F40A7418F202EAA4240,88,0.11,0.012,0.4,0.002
3,서울,강북구,서울 강북구 삼양로 139길 49 우이동 주민센터,127.0118703,37.64793511,정좌표,02,31,0101000020E6100000CC92A57BC2C05F40A9B0A589EFD24240,86,0.09,0.021,0.4,0.003
14,서울,서대문구,서울 서대문구 세검정로4길 32(홍제3동 주민센터) ,126.9496893,37.59376361,정좌표,02,37,0101000020E61000001D37A1B5C7BC5F40A1402B7200CC4240,71,0.09,0.022,0.4,0.005
365,경남,남해읍,경상남도 남해군 남해읍 남해대로 2745 남해유배문학관 옥상,127.8991855,34.83196061,정좌표,055,24,0101000020E610000065E256418CF95F404FC16DAF7D6A4140,74,0.095,0.01,0.4,0.003
395,경남,향촌동,경상남도 사천시 향촌5길 28 향촌동행정복지센터 옥상 (향촌동),128.0936601,34.93402798,정좌표,055,18,0101000020E6100000154E7743FF02604011D3953A8E774140,55,0.105,0.009,0.5,0.003
379,경남,삼호동,경상남도 양산시 삼호9길 11 웅상노인복지회관 (삼호동),129.1722016,35.41434283,정좌표,055,26,0101000020E6100000340AEEAC822560404F17942F09B54140,55,0.095,0.008,0.5,0.004
379,경남,삼호동,경상남도 양산시 삼호9길 11 웅상노인복지회관 (삼호동),129.1722016,35.41434283,정좌표,055,26,0101000020E6100000340AEEAC822560404F17942F09B54140,55,0.095,0.008,0.5,0.004
380,경남,상대동,경남 진주시 동진로 279 (한국전력공사 진주지점),128.1217292,35.18060982,정좌표,055,19,0101000020E6100000FC9EA234E5036040441EFB381E974140,59,0.079,0.014,0.5,0.005
391,경남,창녕읍,경남 창녕군 창녕읍 우포2로 1189-35 정신건강복지센터 옥상,128.4900535,35.54364673,정좌표,055,-1,0101000020E61000004A79AD84AE0F6040B3F64E3796C54140,-1,-1,-1,-1,-1
362,경남,경화동,경남 창원시 진해구 경화로16번길 31 (병암동주민센터),128.6895513,35.15496996,정좌표,055,30,0101000020E6100000424DE3CD10166040FE073F0ED6934140,93,0.066,0.026,0.5,0.005
210,충남,청양읍,충남 청양군 청양읍 칠갑산로7길 54 (청양군 보건의료원 옥상),126.8049362,36.45501472,정좌표,041,16,0101000020E610000075971F1384B35F409FCC1EEC3D3A4240,48,0.094,0.008,0.3,0.005
135,인천,계산,인천 계양구 계양산로134번길 18(계산동) 계양도서관 옥상,126.7301095,37.54600196,정좌표,032,36,0101000020E6100000EE3F321DBAAE5F403EE06864E3C54240,95,0.079,0.029,0.8,0.004
69,경기,비전동,경기 평택시 중앙로 275 자원봉사센터,127.1126239,36.99106141,정좌표,031,33,0101000020E6100000DFCFDF3A35C75F408A23AC19DB7E4240,77,0.114,0.011,0.4,0.005
75,경기,선단동,경기 포천시 삼육사로 2186번길 11-15 선단보건지소,127.1593101,37.85347158,정좌표,031,27,0101000020E61000000A5BFD2232CA5F402D15868E3EED4240,64,0.111,0.012,0.4,0.005
25,서울,중랑구,서울 중랑구 용마산로 369 건강가정지원센터,127.0940384,37.58491578,정좌표,02,31,0101000020E61000005D24A3B904C65F40D6013185DECA4240,81,0.088,0.032,0.5,0.004
259,부산,광안동,부산 수영구 광안로21번가길 57 한바다중학교 옥상,129.118176,35.15744437,정좌표,051,25,0101000020E610000082E50819C82360406F0B1A2327944140,66,0.085,0.015,-1,-1
275,부산,재송동,부산광역시 해운대구 센텀동로 191 동부하수처리장 (재송동),129.1212663,35.18349633,인근좌표,051,28,0101000020E61000006C13DD69E12360409C24C8CE7C974140,65,0.083,0.016,0.3,0.003
139,인천,논현,인천 남동구 청능대로611번길 54(논현동) 근린공원,126.7271214,37.40402214,정좌표,032,31,0101000020E6100000314E322889AE5F4079145BFFB6B34240,81,0.066,0.054,0.6,0.005
143,인천,서창,인천광역시 남동구 서창남로 101 서창어울근린공원 지장 (서창동),126.7461074,37.42750461,정좌표,032,30,0101000020E61000006E934039C0AF5F406C6B9778B8B64240,77,0.078,0.029,0.5,0.004
112,경기,장호원읍,경기 이천시 장호원읍 오남리 27 재래시장 공영주차장,127.6296594,37.11427797,정좌표,031,37,0101000020E61000009DA7F0564CE85F40D2E617A9A08E4240,111,0.131,0.013,0.4,0.004
29,경기,고덕면,경기도 평택시 고덕면 고덕국제2로 111 종덕초등학교 2층 옥상,127.0463368,37.05323037,정좌표,031,28,0101000020E61000007C26A02EF7C25F40E926B540D0864240,72,0.101,0.02,0.4,0.005
86,경기,신장동,경기 하남시 대청로 10 하남시청 종합민원실,127.2142822,37.53958186,정좌표,031,27,0101000020E61000005B47B0CCB6CD5F40801BB50411C54240,83,0.093,0.023,0.4,0.004
21,서울,용산구,서울 용산구 한남대로 136 서울특별시중부기술교육원,127.0048165,37.53983677,정좌표,02,43,0101000020E6100000CC7EDDE94EC05F40052A0C5F19C54240,85,0.078,0.022,0.5,0.004
23,서울,종로구,"서울 종로구 종로35가길 19 종로5,6가 동 주민센터",127.0050321,37.57206209,정좌표,02,37,0101000020E6100000883B287252C05F406CEA9F5439C94240,97,0.095,0.021,0.5,0.005
170,강원,인제읍,강원도 인제군 인제읍 비봉로44번길 93 인제군기상관측소,128.1667859,38.06014081,정좌표,033,5,0101000020E6100000E33D624F560560406F0DAEB1B2074340,46,0.07,0.003,0.1,0.003
405,전남,무안읍,전라남도 무안군 무안읍 성내1길 2 무안읍사무소,126.4763048,34.99029455,정좌표,061,24,0101000020E610000061BB20C77B9E5F401AD4C8F8C17E4140,63,0.093,0.006,0.4,0.004
13,서울,마포구,서울 마포구 포은로 6길 10 망원1동주민센터 옥상,126.9055896,37.5555852,정좌표,02,49,0101000020E610000041E6142EF5B95F402112746A1DC74240,90,0.068,0.043,0.5,0.004
22,서울,은평구,서울 은평구 진흥로 215 (한국환경산업기술원 온실동2층 ),126.9329377,37.6104943,정좌표,02,-1,0101000020E610000026AD5340B5BB5F407C725EAD24CE4240,-1,-1,-1,-1,-1
164,강원,석사동,강원 춘천시 외솔길 17(석사동 322-1) 강원도 개발공사 2층 옥상,127.7500586,37.85679041,정좌표,033,-1,0101000020E61000005945C9F500F05F40FC3CE34EABED4240,-1,-1,-1,-1,-1
258,부산,광복동,부산 중구 광복로 55번길 10 광복동주민센터 옥상,129.0303996,35.09995875,정좌표,051,-1,0101000020E6100000F8F99408F92060407A19C572CB8C4140,-1,-1,-1,-1,-1
277,부산,좌동,부산 해운대구 양운로 91 좌1동주민센터 옥상,129.1742073,35.17088505,정좌표,051,24,0101000020E61000002F07301B932560400B90B28FDF954140,62,0.086,0.007,0.4,0.002
212,충남,태안읍,충남 태안군 태안읍 군청6길 태안군장애인복지관,126.3013594,36.74684293,인근좌표,041,21,0101000020E6100000E6D5EF7849935F40A6CC938C985F4240,92,0.094,0.014,0.4,0.004
124,경기,청북읍,경기도 평택시 청북읍 안청로2길 60 청북문화센터,126.9181347,37.02067595,정좌표,031,33,0101000020E6100000A8740BB8C2BA5F4028887082A5824240,66,0.103,0.014,0.4,0.004
55,경기,미사,경기도 하남시 아리수로 531 미사2동 행정복지센터 (망월동),127.1860631,37.5671773,정좌표,031,28,0101000020E6100000835F3475E8CB5F404C44094499C84240,98,0.085,0.039,0.6,0.003
44,경기,남양읍,경기 화성시 남양읍 남양성지로 192-5 남양읍행정복지센터,126.8237709,37.21176436,정좌표,031,37,0101000020E610000060B994A9B8B45F40455434181B9B4240,81,0.101,0.02,0.4,0.005
276,부산,전포동,부산광역시 부산진구 전포대로209번길 26 놀이마루 운동장 남편 (전포동),129.0630949,35.15629452,정좌표,051,28,0101000020E61000006C8198DF04226040D6F8757501944140,78,0.091,0.016,0.3,0.003
272,부산,연산동,부산 연제구 중앙대로 1001 부산광역시청 녹음광장 창고,129.0755742,35.1804728,정좌표,051,31,0101000020E61000007CAD951A6B226040A5E892BB19974140,73,0.094,0.014,0.3,0.003
279,부산,청학동,부산광역시 영도구 청학남로13번길 18 청학동 어울림마당 (청학동),129.0594971,35.09075999,정좌표,051,23,0101000020E61000009E567666E7216040EB6AFA059E8B4140,63,0.087,0.014,0.3,0.004
280,부산,태종대,부산 영도구 전망로 24 태종대유원지관리사무소 3층,129.0797564,35.05969281,정좌표,051,17,0101000020E6100000B2344B5D8D226040D0609503A4874140,64,0.094,0.009,0.3,0.003
180,충남,공주,충남 공주시 봉황로 1 (공주시의회 옥상),127.1190689,36.44616123,정좌표,041,34,0101000020E610000020DE29D39EC75F40ECCBA9CF1B394240,67,0.108,0.009,0.3,0.005
68,경기,부발읍,경기도 이천시 부발읍 무촌로 117 부발보건지소 옥상,127.4866497,37.28327452,정좌표,031,34,0101000020E6100000ED86C84425DF5F405598E75642A44240,86,0.115,0.013,0.4,0.005
120,경기,창전동,경기 이천시 영창로 163번길 28 평생학습관 어르신쉼터,127.4407311,37.28338663,정좌표,031,32,0101000020E6100000203537F034DC5F40A1FC590346A44240,70,0.095,0.016,0.4,0.004
41,경기,금촌동,경기 파주시 후곡로 13 교육문화회관 별관,126.7741495,37.75605979,정좌표,031,41,0101000020E6100000BE2D58AA8BB15F4071EF3391C6E04240,94,0.098,0.026,0.5,0.004
79,경기,송북동,경기도 평택시 지산2로 113 송북동행정복지센터 (지산동),127.0600256,37.08157208,정좌표,031,31,0101000020E61000000F3B9D75D7C35F40F0EE33F4708A4240,77,0.104,0.016,0.4,0.005
273,부산,용수리,부산 기장군 정관읍 용수로 4 정관읍사무소 옥상,129.179762,35.3259785,정좌표,051,41,0101000020E610000009E23C9CC02560407D59DAA9B9A94140,81,0.112,0.017,0.3,0.005
312,대구,유가읍,대구광역시 달성군 유가읍 테크노북로6길 20 비슬공원,128.4597587,35.69470173,인근좌표,053,27,0101000020E6100000A691E057B60E60408D697DFCEBD84140,75,0.085,0.008,0.4,0.002
316,대구,침산동,대구광역시 북구 옥산로17길 21 대구일중학교 (침산동),128.5846337,35.88756206,정좌표,053,32,0101000020E610000077B4BB51B5126040696F32A29BF14140,69,0.09,0.016,0.3,0.001
44,경기,남양읍,경기 화성시 남양읍 남양성지로 192-5 남양읍행정복지센터,126.8237709,37.21176436,정좌표,031,37,0101000020E610000060B994A9B8B45F40455434181B9B4240,81,0.101,0.02,0.4,0.005
11,서울,동대문구,서울 동대문구 천호대로13길 43 용두초등학교,127.0289621,37.57615297,정좌표,02,35,0101000020E6100000B414DA83DAC15F4057D26961BFC94240,82,0.099,0.025,0.5,0.004
45,경기,내동,경기 부천시 삼작로 109 신흥동주민센터 앞 도로변,126.7733423,37.52046031,정좌표,031,60,0101000020E610000042C7B3707EB15F40732885719EC24240,128,0.078,0.046,0.6,0.005
116,경기,죽산면,경기도 안성시 죽산면 남부길 60 동안성시민복지센터 옥상,127.4244598,37.07467039,정좌표,031,41,0101000020E6100000DEDD6F592ADB5F40C983A1CC8E894240,95,0.114,0.009,0.4,0.003
65,경기,부곡3동,경기도 의왕시 덕영대로 166 부곡청소년문화의 집 (삼동),126.9573054,37.31771145,정좌표,031,-1,0101000020E61000003052DE7D44BD5F4049A8CFC4AAA84240,-1,-1,-1,-1,-1
374,경남,북부동,경상남도 양산시 북안남5길 21 중앙동주민센터 (북부동),129.0408452,35.34585635,정좌표,055,24,0101000020E61000005BC6979A4E216040952E580545AC4140,62,0.106,0.015,0.5,0.006
316,대구,침산동,대구광역시 북구 옥산로17길 21 대구일중학교 (침산동),128.5846337,35.88756206,정좌표,053,32,0101000020E610000077B4BB51B5126040696F32A29BF14140,69,0.09,0.016,0.3,0.001
314,대구,지산동,대구 수성구 지산동 761-11(한국환경공단) (무학로 209) 한국환경공단,128.6316753,35.83042827,정좌표,053,21,0101000020E61000001D661EAF3614604074A93A794BEA4140,58,0.083,0.015,-1,-1
309,대구,수창동,대구 중구 수창동 73 (수창초등학교)(달성로 22길 30) 수창초등학교,128.5843059,35.87439232,정좌표,053,30,0101000020E6100000846B49A2B212604004236916ECEF4140,62,0.094,0.027,0.3,0.002
86,경기,신장동,경기 하남시 대청로 10 하남시청 종합민원실,127.2142822,37.53958186,정좌표,031,27,0101000020E61000005B47B0CCB6CD5F40801BB50411C54240,83,0.093,0.023,0.4,0.004
281,부산,학장동,부산 사상구 대동로 205 학장초등학교 옥상,128.9845784,35.14596245,정좌표,051,35,0101000020E6100000238B8FAA811F6040D698C6E5AE924140,78,0.079,0.015,0.3,0.003
419,전남,영암읍,전라남도 영암군 영암읍 낭주로 202-2 영암 종합스포츠타운 야구장,126.7012941,34.8072483,정좌표,061,24,0101000020E61000002D18A600E2AC5F4034208CE953674140,53,0.079,0.014,-1,0.006
433,전남,화순읍,전라남도 화순군 화순읍 동헌길 9-24 화순군 CCTV 관제센터,126.9858968,35.06529163,정좌표,061,22,0101000020E6100000CA4EE4EE18BF5F40B9C6E3795B884140,58,0.096,0.013,0.2,0.006
433,전남,화순읍,전라남도 화순군 화순읍 동헌길 9-24 화순군 CCTV 관제센터,126.9858968,35.06529163,정좌표,061,22,0101000020E6100000CA4EE4EE18BF5F40B9C6E3795B884140,58,0.096,0.013,0.2,0.006
2,서울,강동구,서울 강동구 구천면로 42길 59 천호1동 주민센터,127.1367991,37.54502047,정좌표,02,36,0101000020E6100000D3270351C1C85F407826133BC3C54240,79,0.085,0.026,0.4,0.003
5,서울,관악구,서울 관악구 신림동길 14 신림동 주민센터,126.9271173,37.48740071,정좌표,02,41,0101000020E610000093C3CCE355BB5F40A4BF7E2563BE4240,81,0.069,0.045,0.6,0.005
6,서울,광진구,서울특별시 광진구 광나루로 571 구의 아리수정수센터,127.0931416,37.5458696,정좌표,02,42,0101000020E61000006A792F08F6C55F40B8F0170EDFC54240,90,0.091,0.022,0.5,0.004
279,부산,청학동,부산광역시 영도구 청학남로13번길 18 청학동 어울림마당 (청학동),129.0594971,35.09075999,정좌표,051,23,0101000020E61000009E567666E7216040EB6AFA059E8B4140,63,0.087,0.014,0.3,0.004
275,부산,재송동,부산광역시 해운대구 센텀동로 191 동부하수처리장 (재송동),129.1212663,35.18349633,인근좌표,051,28,0101000020E61000006C13DD69E12360409C24C8CE7C974140,65,0.083,0.016,0.3,0.003
485,제주,조천읍,제주특별자치도 제주시 조천읍 조천18길 11-1 조천읍 체육관,126.6438609,33.53979153,정좌표,064,16,0101000020E6100000152B590435A95F4000018CE317C54040,48,0.087,0.009,0.3,0.002
146,인천,송림,인천 동구 금곡로 67(송림동) 동구의회 옥상,126.6429062,37.47340672,정좌표,032,59,0101000020E610000052D90B6025A95F40A60D669798BC4240,130,0.062,0.06,0.8,0.005
148,인천,숭의,인천 미추홀구 독정안길 26 용정초등학교,126.6572348,37.45943743,정좌표,032,66,0101000020E6100000C2F28C2210AA5F40433480D8CEBA4240,132,0.049,0.083,0.7,0.005
155,인천,원당,인천 서구 고산후로121번길 7(원당동) 검단선사박물관 옥상,126.6986824,37.59444565,정좌표,032,40,0101000020E61000009C926236B7AC5F40EEFF88CB16CC4240,91,0.08,0.036,0.6,0.005
145,인천,송도,인천 연수구 갯벌로 12 테크노파크 3층 옥상,126.655842,37.38254209,정좌표,032,55,0101000020E6100000F855B950F9A95F405EF2A223F7B04240,117,0.068,0.071,0.7,0.004
464,전북,신풍동(군산),전북 군산시 대학로 215. 신풍동주민센터 옥상 ,126.700794,35.97286293,정좌표,063,33,0101000020E6100000EACE13CFD9AC5F409DEBC1C586FC4140,66,0.081,0.019,0.5,0.007
448,전북,고산면,전북 완주군 고산면 고산로 69-13 고산면주민자치센터 옥상,127.205685,35.97650469,정좌표,063,30,0101000020E6100000C7116BF129CD5F4066F80D1BFEFC4140,72,0.096,0.012,0.5,0.003
178,강원,황지동,강원도 태백시 태붐로 21 태백시청 부지 내 지상 (황지동),128.9863655,37.1647458,정좌표,033,-1,0101000020E6100000E38C614E901F6040A193EF6316954240,-1,-1,-1,-1,-1
265,부산,대저동,부산광역시 강서구 체육공원로 43 강서체육공원 (대저1동),128.9700072,35.21034094,정좌표,051,31,0101000020E61000004E1C8A4C0A1F6040AB27B173EC9A4140,78,0.08,0.023,0.4,0.003
288,울산,범서읍,울산광역시 울주군 범서읍 당앞로 14-50 천상정수사업소,129.227935,35.56907425,인근좌표,052,49,0101000020E6100000A453573E4B276040745FCE6CD7C84140,90,0.112,0.036,0.5,0.014
142,인천,삼산,인천 부평구 충선로 262 시냇물공원 (삼산동),126.7357683,37.51264403,정좌표,032,33,0101000020E6100000BF7BECD316AF5F4079ABCF519EC14240,81,0.076,0.035,0.6,0.004
157,인천,청라,인천 서구 크리스탈로 131 수질정화시설관리동 2층 옥상,126.6373308,37.53699952,인근좌표,032,46,0101000020E6100000F2AE1F07CAA85F40112F7866BCC44240,100,0.078,0.059,0.7,0.009
145,인천,송도,인천 연수구 갯벌로 12 테크노파크 3층 옥상,126.655842,37.38254209,정좌표,032,55,0101000020E6100000F855B950F9A95F405EF2A223F7B04240,117,0.068,0.071,0.7,0.004
455,전북,봉동읍,전라북도 완주군 봉동읍 삼봉로 933 3층 옥외광장,127.1658406,35.94172155,정좌표,063,30,0101000020E61000005656E4219DCA5F401E98ED548AF84140,64,0.094,0.015,0.4,0.002
290,울산,삼남읍,울산광역시 울주군 삼남읍 서향교1길 67-12 울주군보건소 옥상,129.1137363,35.55836372,정좌표,052,44,0101000020E6100000C71B4FBAA323604022565E7678C74140,90,0.129,0.019,0.5,0.01
293,울산,성남동,울산 중구 새즈믄해거리 28 농협 성남동 지점,129.3205004,35.55628939,정좌표,052,47,0101000020E61000005B0B0E8A412A6040B694A07D34C74140,87,0.093,0.032,0.5,0.007
441,광주,우산동(광주),광주광역시 광산구 우산동 1026-2 월곡119안전센터 인근 사유지 (우산동),126.8100849,35.15774996,정좌표,062,27,0101000020E6100000F11E566ED8B35F409992932631944140,70,0.108,0.015,0.5,0.006
7,서울,구로구,서울 구로구 가마산로 27길 45 구로고등학교,126.8894727,37.49775018,정좌표,02,50,0101000020E6100000D44BE71EEDB85F40CC562447B6BF4240,100,0.076,0.038,0.5,0.005
8,서울,금천구,서울 금천구 금하로21길 20 시흥5동 주민센터,126.9083066,37.45239622,정좌표,02,32,0101000020E61000006C6F01B221BA5F40F4DD8C1EE8B94240,72,0.08,0.026,0.4,0.004
326,경북,대광동,경북 김천시 공단2길 30-22 평생교육원 별관 2층 옥상,128.1372747,36.14427037,정좌표,054,22,0101000020E61000002F62E98D640460404677947377124240,52,0.052,0.012,0.3,0.003
171,강원,정선읍,강원도 정선군 정선읍 정선로 1331 정선읍행정복지센터 옥상,128.6617084,37.38006064,정좌표,033,9,0101000020E6100000A22F18B72C156040FFA5B9D3A5B04240,46,0.073,0.006,0.3,0.002
158,강원,갈말읍,강원도 철원군 갈말읍 삼부연로 51 철원군청,127.3125256,38.14631828,정좌표,033,30,0101000020E61000006BCA5F6B00D45F4018B4B18EBA124340,85,0.096,0.01,0.5,0.005
165,강원,신사우동,강원도 춘천시 사우4길 26 신사우도서관 2층 옥상 (우두동),127.7282018,37.90554365,정좌표,033,28,0101000020E6100000DAF8B8DB9AEE5F40DCECB4DAE8F34240,62,0.092,0.01,0.5,0.002
73,경기,새솔동,경기도 화성시 수노을중앙로 178 새솔동 행정복지센터 (새솔동),126.8187165,37.28124595,정좌표,031,39,0101000020E6100000840CE4D965B45F40F4B006DEFFA34240,96,0.085,0.04,0.8,0.005
324,경북,군위읍,경북 군위군 군위읍 군청로 158 군위종합테니스장 옥상,128.5738975,36.23709721,정좌표,054,26,0101000020E610000032384A5E5D12604020768D33591E4240,91,0.1,0.006,0.4,0.003
292,울산,상남리,울산 울주군 청량면 신덕하3길 5 청량면사무소 옥상,129.3057014,35.49319597,정좌표,052,39,0101000020E6100000ED6A4D4EC8296040A2D5A80B21BF4140,93,-1,0.033,0.5,0.007
298,울산,웅촌면,울산광역시 울주군 웅촌면 새초천길 12 웅촌운동장 주차장,129.2086459,35.46097672,정좌표,052,46,0101000020E6100000399E2A3AAD266040054F004901BB4140,88,0.112,0.013,0.5,0.005
373,경남,봉암동,경상남도 창원시 마산회원구 봉양로 148 봉암동 주민센터 (봉암동),128.6027417,35.2178965,정좌표,055,-1,0101000020E6100000EF2DF6A849136040D9B45208E49B4140,-1,0.064,0.049,0.5,0.005
156,인천,주안,인천광역시 미추홀구 구월남로 27 주안도서관 옥상 (주안동),126.6928788,37.4554995,정좌표,032,57,0101000020E6100000DF85522058AC5F4014ECBFCE4DBA4240,108,0.06,0.074,0.6,0.005
141,인천,부평,인천 부평구 부평대로88번길 19(부평동) 인천부평동초등학교 옥상,126.7242173,37.50004563,정좌표,032,40,0101000020E6100000A3AC849359AE5F40CAADC57E01C04240,86,0.073,0.039,0.6,0.006
134,인천,검단,인천 서구 검단로502번길 15(마전동) 검단출장소 옥상,126.6616308,37.60196447,정좌표,032,47,0101000020E6100000AF01B62858AA5F408200F82B0DCD4240,103,0.077,0.047,0.6,0.009
144,인천,석남,인천 서구 거북로 116(석남동) 석남2동 행정복지센터 옥상,126.6746087,37.50262976,정좌표,032,61,0101000020E61000003606F8C92CAB5F402199062C56C04240,103,-1,-1,-1,-1
151,인천,연희,인천 서구 심곡로 98(심곡동) 인천광역시 인재개발원 옥상,126.6805463,37.54160895,정좌표,032,54,0101000020E61000007C7A11128EAB5F4046BC2B7153C54240,98,0.082,0.074,0.7,0.009
140,인천,동춘,인천 연수구 원인재로 115(동춘동) 연수구의회 옥상,126.6783386,37.40949458,정좌표,032,64,0101000020E610000053A74DE669AB5F40A07E82516AB44240,117,0.053,0.079,0.6,0.006
451,전북,구이면,전라북도 완주군 구이면 덕천전원길 232-58 술테마박물관 부지,127.1361624,35.7260167,정좌표,063,19,0101000020E610000079BC7FE2B6C85F40C86C7F1DEEDC4140,45,0.091,0.007,0.2,0.003
470,전북,용동면,전북 익산시 용동면 용동1길 80-4 용동복지회관 옥상,126.9917049,36.10973182,정좌표,063,30,0101000020E61000001C32D41778BF5F40831D39B10B0E4240,55,0.101,0.006,0.4,0.004
476,전북,팔봉동,전북 익산시 무왕로 1338. 익산소방서 옥상,127.0051086,35.9622401,정좌표,063,23,0101000020E61000006A7B05B353C05F402C3300AF2AFB4140,55,0.062,0.001,0.5,0.003
450,전북,관촌면,전라북도 임실군 관촌면 사선1길 13 관촌면 행정복지센터 옥상,127.2708373,35.67382366,정좌표,063,21,0101000020E61000005D82F86555D15F404A7C8BDA3FD64140,65,0.092,0.01,0.4,0.004
122,경기,철산동,경기 광명시 시청로 20 광명시청 제1별관,126.8646648,37.47788647,정좌표,031,44,0101000020E6100000278007AB56B75F40EAEC43622BBD4240,108,0.075,0.043,0.4,0.003
471,전북,임실읍,전라북도 임실군 임실읍 운수로 33-50 청소년문화의집 옥상,127.2864686,35.61426821,정좌표,063,23,0101000020E61000002E15658055D25F4013763857A0CE4140,48,0.084,0.008,0.4,0.004
140,인천,동춘,인천 연수구 원인재로 115(동춘동) 연수구의회 옥상,126.6783386,37.40949458,정좌표,032,64,0101000020E610000053A74DE669AB5F40A07E82516AB44240,117,0.053,0.079,0.6,0.006
453,전북,모현동,전북 익산시 배산로 189-10 익산시 청소년문화의 집 옥상,126.9408959,35.95454707,정좌표,063,25,0101000020E610000031DC6FA337BC5F40411230992EFA4140,51,0.092,0.009,0.4,0.004
458,전북,삼기면,전북 익산시 삼기면 황금로 513 삼기면 행정복지센터 옥상,126.983671,36.02022533,정좌표,063,29,0101000020E610000083C13577F4BE5F404E735DBE96024240,62,0.098,0.008,0.3,0.004
475,전북,팔복동,전북 전주시 덕진구 서귀로 107 청소년자유센터 옥상 ,127.0870117,35.85144218,정좌표,063,32,0101000020E6100000A477859991C55F4079C4AE0EFCEC4140,67,0.087,0.019,0.3,0.003
291,울산,삼산동,울산 남구 삼산중로 131번길 36 삼산동 주민센터 옥상,129.3320285,35.54451335,정좌표,052,55,0101000020E6100000E19A3BFA9F2A6040223E0B9DB2C54140,100,0.093,0.037,0.5,0.009
51,경기,동구동,경기 구리시 동구릉로 217-14 시립동구어린이집,127.1384779,37.61839998,정좌표,031,35,0101000020E610000000EE68D2DCC85F4039F904BB27CF4240,87,0.067,0.018,0.4,0.004
110,경기,일동면,경기도 포천시 일동면 화동로1099번길 30 일동면행정복지센터,127.3172859,37.96127484,정좌표,031,27,0101000020E6100000D8FE84694ED45F404222D00D0BFB4240,59,0.08,0.008,0.4,0.004
441,광주,우산동(광주),광주광역시 광산구 우산동 1026-2 월곡119안전센터 인근 사유지 (우산동),126.8100849,35.15774996,정좌표,062,27,0101000020E6100000F11E566ED8B35F409992932631944140,70,0.108,0.015,0.5,0.006
442,광주,유촌동,광주광역시 서구 천변우하로 203 광주보건환경연구원 신청사 옥상 (유촌동),126.8439355,35.16156634,정좌표,062,30,0101000020E6100000BD1B0B0A03B65F409B37B134AE944140,69,0.106,0.012,0.5,0.005
357,경북,평화남산동(신음동),경상북도 김천시 평화순환길 291 평화남산동주민센터 옥상 (평화동),128.116137,36.12059787,정좌표,054,29,0101000020E6100000611BF164B703604002CF41C06F0F4240,62,0.086,0.007,0.2,0.003
157,인천,청라,인천 서구 크리스탈로 131 수질정화시설관리동 2층 옥상,126.6373308,37.53699952,인근좌표,032,46,0101000020E6100000F2AE1F07CAA85F40112F7866BCC44240,100,0.078,0.059,0.7,0.009
108,경기,이동읍,경기도 용인시 처인구 이동읍 경기동로 673 이동읍주민자치센터,127.1962151,37.14081918,정좌표,031,14,0101000020E6100000CF5EC7C98ECC5F40F15FE65C06924240,62,0.106,0.014,0.3,0.003
52,경기,동탄,경기 화성시 동탄반석로 87 동탄2동 행정복지센터,127.0723124,37.19694512,정좌표,031,-1,0101000020E6100000194630C4A0C45F40DFC0687F35994240,63,0.1,0.011,0.4,0.004
74,경기,서신면,경기도 화성시 서신면 궁평항로 1702 서신면사무소 옥상,126.7087695,37.16657853,정좌표,031,61,0101000020E6100000BFB9BF7A5CAD5F406B48FD7152954240,132,0.114,0.022,0.5,0.006
331,경북,보덕동,경북 경주시 경감로 587-18 경주스마트미디어센터 지상,129.2872754,35.83577683,정좌표,054,38,0101000020E610000040FE2D5C3129604062CD33BCFAEA4140,85,0.126,0.013,0.4,0.009
179,강원,횡성읍,강원도 횡성군 횡성읍 중앙로 30 친환경급식지원센터,127.9833478,37.48962854,정좌표,033,21,0101000020E6100000FD659C2BEFFE5F407E3EE325ACBE4240,66,0.088,0.012,0.4,0.002
461,전북,송천동,전라북도 전주시 덕진구 동부대로 1183 전주시 농수산물도매시장 관리동 (송천동2가),127.1168844,35.86804627,정좌표,063,54,0101000020E610000068DAB4087BC75F404B88E2231CEF4140,98,0.069,0.035,0.4,0.003
218,대전,둔산동,대전 서구 둔산서로 84(근로자 종합복지회관) 근로자 종합복지회관(3층 옥상),127.3834751,36.35430272,정좌표,042,19,0101000020E6100000245525DB8AD85F4055A4A1CA592D4240,48,0.072,0.015,0.5,0.003
59,경기,별양동,경기 과천시 코오롱로 53 문원초등학교,126.9950044,37.42401667,정좌표,031,-1,0101000020E61000001258EF26AEBF5F40EE4DA12D46B64240,-1,-1,-1,-1,-1
89,경기,안양6동,경기 안양시 만안구 안양로170번길 23 안양6동 행정복지센터,126.9305806,37.39006903,정좌표,031,57,0101000020E6100000B1D2EEA18EBB5F4027842FC8EDB14240,156,0.064,0.038,0.4,0.005
30,경기,고색동,경기 수원시 권선구 서부로 1600 수원시도로교통관리사업소,126.9766795,37.25229475,정좌표,031,18,0101000020E61000001DCBBBEA81BE5F40EB19C2314BA04240,93,0.093,0.018,0.4,0.003
63,경기,봉담읍,경기도 화성시 봉담읍 샘마을1길 8-4 화성시립봉담도서관 옥상,126.9490251,37.21941708,정좌표,031,30,0101000020E610000052E5C5D3BCBC5F405464DFDB159C4240,87,0.092,0.02,0.5,0.005
123,경기,청계동,경기도 화성시 동탄순환대로22길 13 예솔초등학교 (청계동),127.1193978,37.19655138,정좌표,031,18,0101000020E6100000B88DAB36A4C75F40B68A7A9828994240,60,0.092,0.012,0.4,0.005
348,경북,율곡동,경북 김천시 혁신4로 21 율곡동 주민센터 옥상 (율곡동),128.1836865,36.12143948,정좌표,054,17,0101000020E6100000EFC682C2E0056040898531548B0F4240,42,0.09,0.009,0.4,0.003
159,강원,금호동,강원도 속초시 중앙시장로 43 금호동주민센터 (중앙동),128.5882321,38.20693785,정좌표,033,22,0101000020E6100000A3FE1FCCD2126040FC0681F07C1A4340,46,0.038,0.01,0.3,0.003
175,강원,평창읍,강원 평창군 평창읍 종부로 61(종부리 504) 평창군보건의료원 2층 옥상,128.3889885,37.36090665,정좌표,033,-1,0101000020E6100000A5C00298720C60405754693032AE4240,60,0.077,0.012,0.5,0.003
248,충북,증평읍,충북 증평군 증평읍 송산리 123-2 폐수중계펌프장 지상,127.5870323,36.79219804,정좌표,043,-1,0101000020E6100000868CECEF91E55F40AEE0D0BE66654240,-1,-1,-1,-1,-1
472,전북,장수읍,전라북도 장수군 장수읍 호비로 10 장수군청 옥상,127.5212107,35.648273,정좌표,063,9,0101000020E6100000D1B41F845BE15F409EF0129CFAD24140,32,0.069,0.004,0.3,0.003
466,전북,연지동,전북 정읍시 조곡천1길 7. 여성문화관 옥상 ,126.8459051,35.56846465,정좌표,063,25,0101000020E61000004101254F23B65F404F571C73C3C84140,82,0.082,0.01,0.5,0.003
329,경북,명륜동,경북 안동시 퇴계로 115 (명륜동) 안동시청 경민관 옥상,128.7296039,36.56842944,정좌표,054,21,0101000020E6100000173147EA581760401A71BF4BC2484240,59,0.094,0.008,0.5,0.002
338,경북,영덕읍,경북 영덕군 영덕읍 삼근길 6-7 영덕군민운동장 옆,129.3638075,36.42027324,정좌표,054,21,0101000020E61000004451A04FA42B60408C977683CB354240,60,0.101,0.008,0.5,0.004
459,전북,삼천동,전북 전주시 완산구 용리로 107 삼천도서관 옥상,127.1216841,35.79894498,정좌표,063,31,0101000020E61000005D7C1BACC9C75F40A23340D443E64140,70,0.094,0.01,0.4,0.003
459,전북,삼천동,전북 전주시 완산구 용리로 107 삼천도서관 옥상,127.1216841,35.79894498,정좌표,063,31,0101000020E61000005D7C1BACC9C75F40A23340D443E64140,70,0.094,0.01,0.4,0.003
217,대전,대성동,대전광역시 동구 동구청로 36 남부여성가족원 (대성동),127.4603084,36.30187735,정좌표,042,-1,0101000020E6100000BE045DB175DD5F409AD3C0EAA3264240,58,0.087,0.01,0.4,0.003
294,울산,신정동,울산 남구 봉월로 20번길 9 신정2동주민센터 옥상,129.3078435,35.53465527,정좌표,052,45,0101000020E610000028999CDAD92960405CA479956FC44140,74,0.093,0.03,0.6,0.011
78,경기,소하동,경기 광명시 소하일로 7 소하도서관,126.8879923,37.4454581,정좌표,031,27,0101000020E610000063E6A7DDD4B85F40819E61C504B94240,89,0.077,0.02,0.3,0.003
337,경북,안강읍,경북 경주시 안강읍 비화동길 9-40 대한노인회 경주시지회 안강읍분회 옥상,129.2270318,35.99077469,정좌표,054,54,0101000020E6100000DD8431D84327604095A07DB4D1FE4140,100,-1,-1,-1,-1
332,경북,상주시,경북 상주시 북천로 63 북문동주민센터,128.1577268,36.42886399,정좌표,054,38,0101000020E61000007DF612190C056040B5BDE503E5364240,67,0.123,0.008,0.1,0.004
403,전남,담양읍,전라남도 담양군 담양읍 면앙정로 730 담양군 농업기술센터 생명농업연구동 뒤편,126.9735158,35.31118484,정좌표,061,9,0101000020E6100000EAC836154EBE5F40CF67A3E7D4A74140,66,0.05,0.005,0.3,0.004
432,전남,호두리,전남 순천시 해룡면 호두리 276-9 호두정수장,127.5730145,34.89356382,정좌표,061,29,0101000020E610000090680245ACE45F40F8E49B4C60724140,69,0.103,0.007,0.3,0.003
411,전남,서강동,전남 여수시 서교1길 28-1(서강동) ,127.7259348,34.74131418,정좌표,061,18,0101000020E6100000D0413CB775EE5F409E940F62E35E4140,64,0.096,0.01,0.6,0.009
1,서울,강남구,서울 강남구 학동로 426 강남구청 별관 1동,127.0474019,37.51729695,정좌표,02,40,0101000020E61000002B91FAA108C35F40084955C936C24240,84,0.1,0.029,0.5,0.004
159,강원,금호동,강원도 속초시 중앙시장로 43 금호동주민센터 (중앙동),128.5882321,38.20693785,정좌표,033,22,0101000020E6100000A3FE1FCCD2126040FC0681F07C1A4340,46,0.038,0.01,0.3,0.003
469,전북,요촌동,전북 김제시 요촌중길 50 요촌동 주민센터 옥상,126.8914564,35.80517124,정좌표,063,28,0101000020E6100000D5F3249F0DB95F4069BDE7D90FE74140,64,0.09,0.012,0.4,0.003
322,경북,가흥동,경북 영주시 가흥로 263 시립도서관 내 (가흥동),128.6129119,36.8208559,정좌표,054,-1,0101000020E610000089BA6AF99C136040449D5ECE11694240,-1,-1,-1,-1,-1
340,경북,영천시,경북 영천시 시청로 23 영천 별빛직장어린이집,128.9375656,35.97278827,정좌표,054,43,0101000020E610000059BB9289001E60408DCA765384FC4140,68,0.107,0.014,0.8,0.008
351,경북,장흥동,경북 포항시 남구 철강로 331 공단정수장 공단정수장,129.3749291,35.97852971,인근좌표,054,39,0101000020E610000033DA4F6BFF2B6040A34E277640FD4140,130,0.069,0.042,1.1,0.019
354,경북,청림동,경북 포항시 남구 신항로 10 청림동주민센터 (청림동),129.4057133,35.99736693,정좌표,054,41,0101000020E6100000AC61759AFB2C6040203B35B8A9FF4140,94,0.06,0.028,0.7,0.015
384,경남,용지동,경남 창원시 의창구 용지로 239번길 19-4 (용지동 주민센터),128.6841242,35.23608144,정좌표,055,21,0101000020E6100000DF2C6F58E41560400DFFA7EA379E4140,60,0.089,0.018,0.5,0.003
318,대구,호림동,대구 달서구 성서공단로 11길 32 대구기계부품연구원 1동 옥상 대구기계부품연구원,128.4887462,35.83758281,정좌표,053,35,0101000020E61000006B2112CFA30F60402652DCE935EB4140,60,0.113,0.013,0.5,0.003
134,인천,검단,인천 서구 검단로502번길 15(마전동) 검단출장소 옥상,126.6616308,37.60196447,정좌표,032,47,0101000020E6100000AF01B62858AA5F408200F82B0DCD4240,103,0.077,0.047,0.6,0.009
151,인천,연희,인천 서구 심곡로 98(심곡동) 인천광역시 인재개발원 옥상,126.6805463,37.54160895,정좌표,032,54,0101000020E61000007C7A11128EAB5F4046BC2B7153C54240,98,0.082,0.074,0.7,0.009
462,전북,순창읍,전라북도 순창군 순창읍 경천로 33 순창군청 3층 옥상,127.1373695,35.37445445,정좌표,063,26,0101000020E6100000F27D71A9CAC85F40BC4B981FEEAF4140,68,0.084,0.014,0.4,0.007
455,전북,봉동읍,전라북도 완주군 봉동읍 삼봉로 933 3층 옥외광장,127.1658406,35.94172155,정좌표,063,30,0101000020E61000005656E4219DCA5F401E98ED548AF84140,64,0.094,0.015,0.4,0.002
467,전북,영파동,전라북도 정읍시 영파동 232-1 정읍 공공하수처리시설 옥상 (영파동),126.8542627,35.61027816,정좌표,063,-1,0101000020E610000055AC753DACB65F40DF5441981DCE4140,-1,0.076,0.008,0.4,0.004
97,경기,오포읍,경기도 광주시 오포읍 오포로859번길 29 오포읍 행정복지센터 옥상,127.2286236,37.36615356,정좌표,031,38,0101000020E61000000146E1C4A1CE5F40CAC1AE1EDEAE4240,69,0.105,0.015,0.4,0.002
93,경기,영통동,경기 수원시 영통구 영통로 217번길 12 영통2동 행정복지센터,127.0563253,37.24696263,정좌표,031,35,0101000020E6100000FE5B6ED59AC35F409297B1789C9F4240,86,0.095,0.019,0.5,0.003
55,경기,미사,경기도 하남시 아리수로 531 미사2동 행정복지센터 (망월동),127.1860631,37.5671773,정좌표,031,28,0101000020E6100000835F3475E8CB5F404C44094499C84240,98,0.085,0.039,0.6,0.003
63,경기,봉담읍,경기도 화성시 봉담읍 샘마을1길 8-4 화성시립봉담도서관 옥상,126.9490251,37.21941708,정좌표,031,30,0101000020E610000052E5C5D3BCBC5F405464DFDB159C4240,87,0.092,0.02,0.5,0.005
74,경기,서신면,경기도 화성시 서신면 궁평항로 1702 서신면사무소 옥상,126.7087695,37.16657853,정좌표,031,61,0101000020E6100000BFB9BF7A5CAD5F406B48FD7152954240,132,0.114,0.022,0.5,0.006
129,경기,향남읍,경기 화성시 향남읍 발안로 89 향남읍 행정복지센터,126.9204813,37.13267292,정좌표,031,25,0101000020E61000001805662AE9BA5F407F3B1E6DFB904240,74,0.108,0.012,0.4,0.004
129,경기,향남읍,경기 화성시 향남읍 발안로 89 향남읍 행정복지센터,126.9204813,37.13267292,정좌표,031,25,0101000020E61000001805662AE9BA5F407F3B1E6DFB904240,74,0.108,0.012,0.4,0.004
24,서울,중구,서울 중구 덕수궁길 15 시청서소문별관 3동,126.9759778,37.56454791,정좌표,02,44,0101000020E6100000CF27976B76BE5F40D23C1D1B43C84240,95,0.085,0.03,0.5,0.004
327,경북,대도동,경북 포항시 남구 대도동 111-6(상대동평생학습관) 상대동평생학습관,129.3658921,36.01886163,정좌표,054,40,0101000020E6100000AC6B5963B52B6040E8FFD10E6A024240,-1,-1,-1,-1,-1
239,충북,영천동,충청북도 제천시 청풍호로8길 7 비점오염원 관리시설 뒤편 공터 (영천동),128.2008578,37.12410553,정좌표,043,28,0101000020E6100000B044566D6D066040274DA4B0E28F4240,66,0.097,0.008,0.1,0.002
336,경북,송도동,경북 포항시 남구 축항로 55 송림초등학교 (송도동),129.375095,36.02974037,정좌표,054,49,0101000020E610000094BC3AC7002C6040AE424E88CE034240,80,0.091,0.009,0.4,0.004
343,경북,오천읍,경북 포항시 남구 오천읍 냉천로320번길 4-11 오천읍민복지회관,129.4087948,35.96716698,정좌표,054,43,0101000020E6100000CC18D5D8142D6040806FAA20CCFB4140,88,0.09,0.013,0.4,0.004
351,경북,장흥동,경북 포항시 남구 철강로 331 공단정수장 공단정수장,129.3749291,35.97852971,인근좌표,054,39,0101000020E610000033DA4F6BFF2B6040A34E277640FD4140,130,0.069,0.042,1.1,0.019
176,강원,홍천읍,강원도 홍천군 홍천읍 연봉동로 27 홍천기상관측소,127.8802631,37.68377266,정좌표,033,26,0101000020E610000009980A3B56F85F40AA4CCEDC85D74240,67,0.086,0.009,0.3,0.004
250,충북,청풍면,충청북도 제천시 청풍면 청풍호로 2115 청풍면행정복지센터 옆쪽 공터,128.1684567,37.00082114,정좌표,043,47,0101000020E610000059294EFF6305604004B938E81A804240,62,-1,-1,-1,-1
248,충북,증평읍,충북 증평군 증평읍 송산리 123-2 폐수중계펌프장 지상,127.5870323,36.79219804,정좌표,043,-1,0101000020E6100000868CECEF91E55F40AEE0D0BE66654240,-1,-1,-1,-1,-1
177,강원,화천읍,강원도 화천군 화천읍 화천새싹길 45 건설방재과 옥상,127.7079574,38.10566811,정좌표,033,9,0101000020E610000084FD8D2C4FED5F400F575A88860D4340,41,0.076,0.005,0.2,0.001
230,충북,덕산읍,충청북도 진천군 덕산읍 대월로 90 혁신도시공원 관리사무소 옥상,127.5390973,36.90190809,정좌표,043,32,0101000020E61000002937F69180E25F401F466BB971734240,73,0.122,0.01,0.4,0.004
139,인천,논현,인천 남동구 청능대로611번길 54(논현동) 근린공원,126.7271214,37.40402214,정좌표,032,31,0101000020E6100000314E322889AE5F4079145BFFB6B34240,81,0.066,0.054,0.6,0.005
420,전남,용당동,전남 목포시 동부로 31번길 20(용당1동 주민센터 옥상) 용당1동 주민센터 옥상,126.3917157,34.80593163,정좌표,061,17,0101000020E61000001B35BADE11995F40BCD484C428674140,59,0.086,0.005,0.2,0.003
405,전남,무안읍,전라남도 무안군 무안읍 성내1길 2 무안읍사무소,126.4763048,34.99029455,정좌표,061,24,0101000020E610000061BB20C77B9E5F401AD4C8F8C17E4140,63,0.093,0.006,0.4,0.004
411,전남,서강동,전남 여수시 서교1길 28-1(서강동) ,127.7259348,34.74131418,정좌표,061,18,0101000020E6100000D0413CB775EE5F409E940F62E35E4140,64,0.096,0.01,0.6,0.009
143,인천,서창,인천광역시 남동구 서창남로 101 서창어울근린공원 지장 (서창동),126.7461074,37.42750461,정좌표,032,30,0101000020E61000006E934039C0AF5F406C6B9778B8B64240,77,0.078,0.029,0.5,0.004
421,전남,월내동,전남 여수시 여수산단로 1201(월내동) 여수산단 월내 폐수종말처리장,127.7331,34.85128762,인근좌표,061,22,0101000020E6100000A52C431CEBEE5F40E1B123FEF66C4140,72,0.079,0.023,0.5,0.013
344,경북,외동읍,경북 경주시 외동읍 입실로3길 31 외동보건지소 옥상,129.3235759,35.71570495,정좌표,054,36,0101000020E6100000C388D8BB5A2A6040ECEA44389CDB4140,70,0.104,0.013,0.5,0.006
353,경북,진미동,경상북도 구미시 이계북로 149 진미동 행정복지센터 (진평동),128.4187934,36.10604178,정좌표,054,27,0101000020E6100000FB986AC1660D6040088EECC6920D4240,69,0.109,0.013,0.5,0.004
358,경북,형곡동,경북 구미시 형곡동 142(구미시립도서관) 구미시립도서관,128.3359948,36.11361707,정좌표,054,18,0101000020E610000009B42A78C00A60406BF50F018B0E4240,52,0.094,0.017,0.2,0.004
333,경북,석포면,경상북도 봉화군 석포면 석포로1길 55 석포면사무소 앞,129.0651977,37.04866409,정좌표,054,24,0101000020E6100000C8A87C19162260401285F99F3A864240,58,0.08,0.007,0.4,0.004
388,경남,장유동,경남 김해시 장유동 능동로 149 (장유건강지원센터),128.8072135,35.20234113,정좌표,055,25,0101000020E610000078EC67B1D41960402BFE6B50E6994140,55,0.087,0.028,0.4,0.004
338,경북,영덕읍,경북 영덕군 영덕읍 삼근길 6-7 영덕군민운동장 옆,129.3638075,36.42027324,정좌표,054,21,0101000020E61000004451A04FA42B60408C977683CB354240,60,0.101,0.008,0.5,0.004
155,인천,원당,인천 서구 고산후로121번길 7(원당동) 검단선사박물관 옥상,126.6986824,37.59444565,정좌표,032,40,0101000020E61000009C926236B7AC5F40EEFF88CB16CC4240,91,0.08,0.036,0.6,0.005
118,경기,중앙동,경기 여주시 여흥로11번길 26 중앙동행정복지센터,127.6293097,37.29868048,정좌표,031,0,0101000020E61000008E23319C46E85F40DCC676293BA64240,0,0,0,0,0
209,충남,주교면,충청남도 보령시 주교면 울계큰길 396 주교면사무소 옥상,126.569548,36.3908132,정좌표,041,38,0101000020E61000002460747973A45F402C6CBC2A06324240,82,0.12,0.021,0.6,0.006
228,충북,단성면,충북 단양군 단성면 충혼로 52-1 단성보건지소 주차장(지면),128.320839,36.93915662,정좌표,043,18,0101000020E610000001892650440A6040675CBC4836784240,41,0.084,0.007,0.2,0.002
211,충남,탄천면,충청남도 공주시 탄천면 안터새말길 34 안영1리 경로당 옥상,127.0673243,36.30863791,정좌표,041,26,0101000020E610000078AE940A4FC45F40BEE0707281274240,57,0.1,0.005,0.3,0.005
5,서울,관악구,서울 관악구 신림동길 14 신림동 주민센터,126.9271173,37.48740071,정좌표,02,41,0101000020E610000093C3CCE355BB5F40A4BF7E2563BE4240,81,0.069,0.045,0.6,0.005
341,경북,영해면,경상북도 영덕군 영해면 예주3길 7 영해면행정복지센터 옥상,129.4067623,36.53737625,정좌표,054,29,0101000020E6100000DDF75E32042D6040D5B2B5BEC8444240,62,0.098,0.01,0.5,0.004
225,충북,가덕면,충청북도 청주시 상당구 가덕면 보청대로 4650 가덕면사무소 앞쪽 부지,127.5483141,36.5534529,정좌표,043,32,0101000020E6100000E2DB059417E35F402DB06C8BD7464240,60,0.092,0.009,0.4,0.002
207,충남,장항읍,"충청남도 서천군 장항읍 장산로 297 한국철도시설공단 부지내, 공원로 지상 1층",126.6930703,36.00833526,정좌표,041,33,0101000020E61000000D1588435BAC5F40458D3A2111014240,92,0.075,0.031,0.4,0.006
380,경남,상대동,경남 진주시 동진로 279 (한국전력공사 진주지점),128.1217292,35.18060982,정좌표,055,19,0101000020E6100000FC9EA234E5036040441EFB381E974140,59,0.079,0.014,0.5,0.005
239,충북,영천동,충청북도 제천시 청풍호로8길 7 비점오염원 관리시설 뒤편 공터 (영천동),128.2008578,37.12410553,정좌표,043,28,0101000020E6100000B044566D6D066040274DA4B0E28F4240,66,0.097,0.008,0.1,0.002
339,경북,영양군,경상북도 영양군 영양읍 군청길 37 영양군청 옥상,129.1123665,36.66718244,정좌표,054,18,0101000020E61000005055A18198236040FB21F43B66554240,64,0.096,0.007,0.3,0.004
254,세종,신흥동,세종 조치원읍 군청로 87-16(신흥동) 세종특별자치시 조치원청사 옥상,127.291966,36.59245166,정좌표,044,41,0101000020E6100000D0622992AFD25F409914BC74D54B4240,-1,0.109,0.018,0.4,0.004
350,경북,장량동,경북 포항시 북구 삼흥로 98 북구보건소 북구보건소,129.3804395,36.07066299,정좌표,054,32,0101000020E61000006953758F2C2C6040368B1F7C0B094240,76,0.106,0.013,0.5,0.005
389,경남,정촌면,경상남도 진주시 정촌면 예하리 1340 예하초등학교 앞 공원 지상,128.1004971,35.12489304,정좌표,055,22,0101000020E6100000F9BAB145370360402626C17EFC8F4140,55,0.094,0.012,0.7,0.003
336,경북,송도동,경북 포항시 남구 축항로 55 송림초등학교 (송도동),129.375095,36.02974037,정좌표,054,49,0101000020E610000094BC3AC7002C6040AE424E88CE034240,80,0.091,0.009,0.4,0.004
217,대전,대성동,대전광역시 동구 동구청로 36 남부여성가족원 (대성동),127.4603084,36.30187735,정좌표,042,-1,0101000020E6100000BE045DB175DD5F409AD3C0EAA3264240,58,0.087,0.01,0.4,0.003
188,충남,독곶리,충남 서산시 대산읍 평신1로(독곶리) 한국수자원공사 대산산업용수센터 저수동 옥상,126.3698813,36.98637848,인근좌표,041,64,0101000020E6100000BAB99D22AC975F40028A68A6417E4240,103,0.118,0.038,0.6,0.013
295,울산,야음동,울산 남구 대암로 90번길 27 울산세관,129.3262057,35.52876102,정좌표,052,42,0101000020E61000009AA8EF46702A60405926EC70AEC34140,88,0.098,0.028,0.5,0.007
246,충북,장락동,"충북 제천시 장락동 672-8(내제로 318),(시립도서관 주차장 옆, 화단) 의병도서관 지상",128.2206698,37.14511688,정좌표,043,26,0101000020E6100000E0C61CBA0F0760404AD99E3093924240,75,0.1,0.009,0.5,0.002
468,전북,옥산면,전북 군산시 옥산면 산성로 200 옥산면사무소 옥상,126.7483759,35.93946498,정좌표,063,24,0101000020E610000055E70764E5AF5F402C6B726340F84140,55,0.088,0.017,0.5,0.007
334,경북,성건동,경북 경주시 성건동 667-3(성건동주민센터) 성건동주민센터,129.2085155,35.85306078,인근좌표,054,44,0101000020E6100000B1A6B228AC266040D5CC7B1831ED4140,94,0.088,0.016,0.5,0.006
191,충남,모종동,충남 아산시 모종동 573-2 보건소옥상,127.0145995,36.78269024,정좌표,041,35,0101000020E61000006EC2BD32EFC05F4065D99B312F644240,75,0.099,0.014,0.3,0.004
465,전북,심원면,전라북도 고창군 심원면 심원로 211 심원면사무소,126.5508661,35.52418512,정좌표,063,36,0101000020E610000067FEE26341A35F4094B97D7F18C34140,69,0.096,0.008,0.5,0.006
340,경북,영천시,경북 영천시 시청로 23 영천 별빛직장어린이집,128.9375656,35.97278827,정좌표,054,43,0101000020E610000059BB9289001E60408DCA765384FC4140,68,0.107,0.014,0.8,0.008
325,경북,대가야읍,경북 고령군 대가야읍 성산로 46 고령배수지,128.2872368,35.72851986,정좌표,054,18,0101000020E6100000A5C63A0B31096040DF97862340DD4140,63,0.088,0.002,0.7,0.003
381,경남,상봉동,경남 진주시 비봉로 85번길 12 (상봉동 주민센터 상봉현장 민원실),128.078043,35.19828645,정좌표,055,-1,0101000020E6100000D19508547F026040B6FE4C7361994140,-1,-1,-1,-1,-1
195,충남,서면,충남 서천군 서면 서인로 761 서면보건지소옥상,126.5495605,36.15297233,정좌표,041,35,0101000020E610000019ABCDFF2BA35F407E45E99894134240,78,0.093,0.01,0.4,0.004
208,충남,정산면,충청남도 청양군 정산면 칠갑산로 1861 정산커뮤니티센터,126.9455855,36.41499452,정좌표,041,20,0101000020E610000099840B7984BC5F40A9B5598A1E354240,38,0.113,0.008,0.4,0.004
410,전남,삼일동,전라남도 여수시 상암로 601-1 상암보건지소 (상암동),127.7315646,34.82477179,정좌표,061,21,0101000020E610000053FA53F4D1EE5F40505B3C1F92694140,52,0.085,0.009,0.5,0.003
303,대구,다사읍,대구광역시 달성군 다사읍 매곡로12길 37 다사읍주민자치센터,128.4573074,35.86481589,정좌표,053,35,0101000020E610000000E72043A20E60403A4E7E49B2EE4140,67,0.106,0.009,0.4,0.002
428,전남,진상면,전남 광양시 진상면 신시길 227(섬거리) 진상면사무소,127.7195172,35.02003726,정좌표,061,23,0101000020E610000035BADE910CEE5F406333B89490824140,68,0.064,0.012,0.3,0.007
468,전북,옥산면,전북 군산시 옥산면 산성로 200 옥산면사무소 옥상,126.7483759,35.93946498,정좌표,063,24,0101000020E610000055E70764E5AF5F402C6B726340F84140,55,0.088,0.017,0.5,0.007
262,부산,당리동,부산 사하구 제석로 41 낙동초등학교 운동장 동편 화단 (당리동),128.9730024,35.10593081,정좌표,051,34,0101000020E6100000BFDDEDD5221F60405D4B0A248F8D4140,86,0.076,0.039,0.4,0.004
283,부산,회동동,부산광역시 금정구 금사로 217 회동마루 (회동동),129.1207224,35.23039195,정좌표,051,26,0101000020E6100000A1FC38F5DC2360407E41C17B7D9D4140,59,0.084,0.022,0.4,0.008
363,경남,고성읍,경상남도 고성군 고성읍 중앙로 35 고성읍보건지소 2층 옥상,128.3241078,34.97453997,정좌표,055,27,0101000020E61000001D2C52175F0A6040BDE5C9B9BD7C4140,71,0.074,0.013,0.5,0.003
434,전남,화양면,전라남도 여수시 화양면 평촌길 2-6 화동경로당,127.597404,34.68577243,정좌표,061,15,0101000020E6100000F99FFCDD3BE65F409AAC1764C7574140,58,0.082,0.005,0.4,0.003
463,전북,신태인,전라북도 정읍시 신태인읍 신태인중앙로 14 신태인읍사무소,126.886661,35.68814985,정좌표,063,29,0101000020E6100000E068C70DBFB85F40A83F564B15D84140,55,0.078,0.016,0.4,0.004
227,충북,괴산읍,충북 괴산군 괴산읍 서부리 377-1 반석아파트 앞 지상,127.7892943,36.80756727,정좌표,043,22,0101000020E6100000D45A3DCC83F25F4029FC425D5E674240,50,0.081,0.008,0.4,0.002
214,대전,관평동,대전광역시 유성구 테크노중앙로 88 동화울수변공원 내 (관평동),127.3940999,36.42439795,정좌표,042,23,0101000020E6100000D776C9EE38D95F40A6DE09AC52364240,53,0.096,0.01,0.6,0.004
231,충북,매포읍,"충북 단양군 매포읍 평동리 1274(평동33길 3),(매포 보건지소 마당) 매포보건지소 지상",128.2957261,37.03339549,정좌표,043,25,0101000020E61000005B0295967609604023B1AC4D46844240,-1,-1,-1,-1,-1
274,부산,장림동,부산 사하구 장림로 161번길 2 장림1동주민센터 옥상,128.9668695,35.08305314,정좌표,051,41,0101000020E6100000FF3F4E98F01E6040A7103C7CA18A4140,124,0.064,0.037,0.4,0.003
430,전남,함평읍,전라남도 함평군 함평읍 중앙길 39 함평군노인복지회관,126.5226253,35.06191356,정좌표,061,35,0101000020E6100000FBE362B172A15F4081B095C8EC874140,69,0.093,0.011,0.6,0.004
260,부산,기장읍,부산 기장군 기장읍 읍내로 69 기장초등학교 옥상,129.2114827,35.24617311,정좌표,051,31,0101000020E61000006F055E77C4266040644DB899829F4140,67,0.097,0.006,0.3,0.003
329,경북,명륜동,경북 안동시 퇴계로 115 (명륜동) 안동시청 경민관 옥상,128.7296039,36.56842944,정좌표,054,21,0101000020E6100000173147EA581760401A71BF4BC2484240,59,0.094,0.008,0.5,0.002
194,충남,부여읍,충남 부여군 부여읍 사비로 36 (부여읍행정복지센터 옥상),126.9111702,36.27555154,정좌표,041,36,0101000020E6100000BF85D09C50BA5F40CB54DA4545234240,81,0.098,0.011,0.4,0.004
420,전남,용당동,전남 목포시 동부로 31번길 20(용당1동 주민센터 옥상) 용당1동 주민센터 옥상,126.3917157,34.80593163,정좌표,061,17,0101000020E61000001B35BADE11995F40BCD484C428674140,59,0.086,0.005,0.2,0.003
438,광주,두암동,광주 북구 군왕로 141번길 6 (두암보건지소) 두암보건지소 3층 옥상,126.9324668,35.17431267,정좌표,062,22,0101000020E6100000C5A63A89ADBB5F40D776A8E04F964140,58,0.1,0.016,0.8,0.006
238,충북,영동읍,충청북도 영동군 영동읍 계산로2길 25 레인보우도서관 옥상,127.7777908,36.17275149,정좌표,043,27,0101000020E61000004D481053C7F15F4051F187B81C164240,55,0.093,0.009,0.3,0.002
341,경북,영해면,경상북도 영덕군 영해면 예주3길 7 영해면행정복지센터 옥상,129.4067623,36.53737625,정좌표,054,29,0101000020E6100000DDF75E32042D6040D5B2B5BEC8444240,62,0.098,0.01,0.5,0.004
229,충북,단양읍,충청북도 단양군 단양읍 별곡6길 26 공설운동장 공중화장실 옥상,128.3656153,36.98734969,정좌표,043,30,0101000020E61000005A8DDB1EB30B604004228279617E4240,55,0.083,0.011,0.5,0.002
253,세종,부강면,세종특별자치시 부강면 부강외천로 20 문화복지회관 옥상,127.3704313,36.52680887,정좌표,044,16,0101000020E61000008CBA7B25B5D75F4045F219796E434240,62,0.088,0.012,0.4,0.004
464,전북,신풍동(군산),전북 군산시 대학로 215. 신풍동주민센터 옥상 ,126.700794,35.97286293,정좌표,063,33,0101000020E6100000EACE13CFD9AC5F409DEBC1C586FC4140,66,0.081,0.019,0.5,0.007
387,경남,의령읍,경남 의령군 의령읍 의병로8길 44 서동생활공원 지상,128.2570964,35.31564477,정좌표,055,23,0101000020E61000006BBD3A223A086040D7263E0C67A84140,47,0.071,0.007,0.3,0.003
479,제주,남원읍,제주특별자치도 서귀포시 남원읍 남한로 67 서귀포시 동부노인복지회관,126.7148676,33.28425982,정좌표,064,17,0101000020E610000015BE0864C0AD5F40C23B33A062A44040,40,0.093,0.005,0.4,0.001
9,서울,노원구,서울 노원구 상계로 118 상계2동 주민센터 (23길 17 노원구 원터행복발전소),127.0678627,37.65748117,정좌표,02,37,0101000020E61000009247CBDC57C45F406271CD5728D44240,73,0.087,0.021,0.5,0.004
255,세종,아름동,세종특별자치시 보듬3로 114 아름동커뮤니티센터 옥상 (아름동),127.24689,36.51235217,정좌표,044,19,0101000020E610000067EDB60BCDCF5F40A21783C194414240,48,0.105,0.011,0.5,0.004
418,전남,영광읍,전라남도 영광군 영광읍 물무로2길 61 영광읍사무소,126.5118346,35.27794252,정좌표,061,28,0101000020E610000085FDE8E5C1A05F40AFC8D89E93A34140,72,0.099,0.013,0.7,0.006
37,경기,과천동,경기 과천시 상하벌로 17 과천시 환경사업소,127.0000671,37.44854069,인근좌표,031,-1,0101000020E61000008E13701901C05F40D63C05C869B94240,-1,-1,-1,-1,-1
446,전북,개정동,전북 군산시 개정동 507-24 개정동주민센터 2층옥상 ,126.7544464,35.96424014,정좌표,063,24,0101000020E610000070A58DD948B05F402E658D386CFB4140,69,0.088,0.012,0.4,0.006
399,전남,곡성읍,전남 곡성군 곡성읍 학정3길 6 곡성읍 측정소,127.2899497,35.28342608,정좌표,061,17,0101000020E61000000ABF2F898ED25F407C37484E47A44140,51,0.086,0.014,0.8,0.004
142,인천,삼산,인천 부평구 충선로 262 시냇물공원 (삼산동),126.7357683,37.51264403,정좌표,032,33,0101000020E6100000BF7BECD316AF5F4079ABCF519EC14240,81,0.076,0.035,0.6,0.004
257,부산,개금동,부산광역시 부산진구 개금온정로17번길 51 개금3동 어린이놀이터 지상 (개금동),129.0226509,35.15519127,정좌표,051,28,0101000020E61000003357618EB92060402AA3BA4EDD934140,73,0.088,0.03,0.4,0.004
323,경북,공단동,경북 구미시 공단동 256-18 (근로자종합복지회) 근로자종합복지회,128.3840068,36.10502918,정좌표,054,30,0101000020E610000022EEA0C8490C6040E49C9E98710D4240,65,0.09,0.015,0.4,0.003
342,경북,예천군,경상북도 예천군 호명면 행복7길 25-4 예천군 통합관제센터 옥상,128.4732402,36.57677942,정좌표,054,33,0101000020E6100000E1C4A1C8240F6040F3F374E8D3494240,79,0.106,0.007,0.3,0.003
278,부산,청룡동,부산 금정구 청룡로 25 청룡노포동주민센터 옥상,129.0898645,35.27525082,정좌표,051,20,0101000020E61000004912842BE0226040700C3B6B3BA34140,60,0.093,0.01,-1,-1
28,경기,경안동,경기 광주시 중앙로 128 농협중앙회,127.2580208,37.41122784,정좌표,031,20,0101000020E6100000046CAC6983D05F409B00261DA3B44240,62,0.087,0.02,0.3,0.003
122,경기,철산동,경기 광명시 시청로 20 광명시청 제1별관,126.8646648,37.47788647,정좌표,031,44,0101000020E6100000278007AB56B75F40EAEC43622BBD4240,108,0.075,0.043,0.4,0.003
311,대구,신암동,대구 동구 신암동 72-1 (신암5동사무소)(아양로 37길 92) 주민센터,128.6329246,35.88978593,정좌표,053,27,0101000020E6100000AF3A17EB401460403EE55E81E4F14140,68,0.089,0.009,0.4,0.003
35,경기,곤지암,경기도 광주시 곤지암읍 광여로 59 곤지암읍 행정복지센터 옥상,127.3523769,37.35093316,정좌표,031,21,0101000020E61000006A57D7578DD65F4016A4B660EBAC4240,70,0.076,0.01,0.4,0.002
27,경기,가평,경기도 가평군 가평읍 석봉로 181 가평군청 의회동,127.5101842,37.83113936,정좌표,031,26,0101000020E6100000E67BA1DBA6E05F4027CF48C662EA4240,57,0.082,0.009,0.3,0.003
115,경기,주엽동,경기도 고양시 일산서구 주엽로 104 주엽어린이도서관 (주엽동),126.7530249,37.66003,인근좌표,031,33,0101000020E6100000B7A4598F31B05F407F30F0DC7BD44240,73,0.093,0.022,0.6,0.004
401,전남,구례읍,전남 구례군 구례읍 동편제길 30 구례읍 측정소,127.4615362,35.21633383,정좌표,061,15,0101000020E6100000E33A21CF89DD5F40296FB2D3B09B4140,58,0.072,0.008,0.4,0.005
137,인천,구월동,인천 남동구 구월말로 7(구월동) 구월4동 행정복지센터 옥상,126.7240627,37.44963442,정좌표,032,40,0101000020E61000003930140B57AE5F402987E49E8DB94240,78,0.065,0.039,0.6,0.004
437,광주,농성동,광주 서구 상무대로 1165 (광주시립미술관 상록전시관 단독건물) 광주시립미술관,126.8892602,35.15456146,정좌표,062,27,0101000020E61000009A289DA3E9B85F4004F67FABC8934140,60,0.106,0.016,0.6,0.006
333,경북,석포면,경상북도 봉화군 석포면 석포로1길 55 석포면사무소 앞,129.0651977,37.04866409,정좌표,054,24,0101000020E6100000C8A87C19162260401285F99F3A864240,58,0.08,0.007,0.4,0.004
442,광주,유촌동,광주광역시 서구 천변우하로 203 광주보건환경연구원 신청사 옥상 (유촌동),126.8439355,35.16156634,정좌표,062,30,0101000020E6100000BD1B0B0A03B65F409B37B134AE944140,69,0.106,0.012,0.5,0.005
429,전남,태인동,전남 광양시 태인길 376(태인동) 태인폐정수장 사무실,127.7570524,34.94187489,정좌표,061,40,0101000020E6100000EFD6E88B73F05F409FBC3C5B8F784140,104,0.042,0.058,1.1,0.032
149,인천,신흥,인천 중구 서해대로 471(신흥동 2가) 인천보건환경연구원 옥상,126.6350224,37.4683039,정좌표,032,63,0101000020E61000008E0EFE34A4A85F406D8BD761F1BB4240,139,0.063,0.073,0.6,0.007
152,인천,영종,인천광역시 중구 하늘중앙로 132 영종하늘도서관 옥상 (중산동),126.5637809,37.49473461,정좌표,032,29,0101000020E610000001E77BFC14A45F401D13B57653BF4240,84,0.088,0.036,0.5,0.005
330,경북,문경시,경북 문경시 시청2길 45 모전도서관 옥상 (모전동),128.1860637,36.58667413,정좌표,054,31,0101000020E6100000214FDC3BF40560402FE14C23184B4240,61,0.091,0.005,0.4,0.004
345,경북,울릉읍,경북 울릉군 울릉읍 도동2길 65 울릉군민회관,130.9054388,37.48420834,정좌표,054,30,0101000020E6100000F250CA5AF95C60400F60F489FABD4240,75,0.072,0.007,0.4,0.002
273,부산,용수리,부산 기장군 정관읍 용수로 4 정관읍사무소 옥상,129.179762,35.3259785,정좌표,051,41,0101000020E610000009E23C9CC02560407D59DAA9B9A94140,81,0.112,0.017,0.3,0.005
322,경북,가흥동,경북 영주시 가흥로 263 시립도서관 내 (가흥동),128.6129119,36.8208559,정좌표,054,-1,0101000020E610000089BA6AF99C136040449D5ECE11694240,-1,-1,-1,-1,-1
474,전북,진안읍,전북 진안군 진안읍 진무로 1189 진안군 보건소 옥상,127.434717,35.79749595,정좌표,063,13,0101000020E6100000FA804067D2DB5F40A2F8E75814E64140,37,0.062,0.006,0.4,0.002
390,경남,진영읍,경남 김해시 진영읍 김해대로365번길 6-24 진영건강증진센터 옥상,128.7310916,35.30779082,정좌표,055,25,0101000020E61000002C0C361A651760405BF488B065A74140,69,0.098,0.019,0.4,0.005
154,인천,운서,인천 중구 영종대로 85(운서동) 영종도서관 옥상,126.4886676,37.49561496,정좌표,032,44,0101000020E610000059277854469F5F40DE4D9E4F70BF4240,82,0.07,0.036,0.6,0.008
432,전남,호두리,전남 순천시 해룡면 호두리 276-9 호두정수장,127.5730145,34.89356382,정좌표,061,29,0101000020E610000090680245ACE45F40F8E49B4C60724140,69,0.103,0.007,0.3,0.003
117,경기,중2동,경기 부천시 심중로 121 책마루도서관,126.770107,37.49397115,정좌표,031,-1,0101000020E6100000ECDADE6E49B15F40713557723ABF4240,-1,-1,-1,-1,-1
330,경북,문경시,경북 문경시 시청2길 45 모전도서관 옥상 (모전동),128.1860637,36.58667413,정좌표,054,31,0101000020E6100000214FDC3BF40560402FE14C23184B4240,61,0.091,0.005,0.4,0.004
321,경북,4공단,경상북도 구미시 산동읍 첨단기업1로 17 구미전자정보기술원 혁신관 옥상,128.4408368,36.1415581,정좌표,054,33,0101000020E6100000F2DBC6551B0E6040F0FD68931E124240,79,0.1,0.008,0.5,0.005
319,대구,화원읍,대구광역시 달성군 화원읍 인흥1길 12 화원명곡체육공원,128.5039384,35.79821567,정좌표,053,36,0101000020E61000005B666C432010604001E75AEE2BE64140,70,0.114,0.011,0.2,0.002
264,부산,대연동,부산 남구 수영로 196번길 80 부산공업고등학교 공동실습관 옥상,129.0884204,35.1308881,정좌표,051,25,0101000020E610000093C90457D4226040C177F6F0C0904140,71,0.09,0.01,0.4,0.003
368,경남,대안동,경남 진주시 진주대로 1052 (중소기업은행),128.0845192,35.19355192,정좌표,055,40,0101000020E61000004AFC9B61B40260402F3D2F4FC6984140,51,0.086,0.019,0.6,0.003
149,인천,신흥,인천 중구 서해대로 471(신흥동 2가) 인천보건환경연구원 옥상,126.6350224,37.4683039,정좌표,032,63,0101000020E61000008E0EFE34A4A85F406D8BD761F1BB4240,139,0.063,0.073,0.6,0.007
404,전남,덕충동,전남 여수시 덕충안길 95 만덕동주민자치센터,127.7465976,34.7536612,정좌표,061,19,0101000020E61000006AD14C41C8EF5F40CF215FF877604140,49,0.085,0.014,0.5,0.003
146,인천,송림,인천 동구 금곡로 67(송림동) 동구의회 옥상,126.6429062,37.47340672,정좌표,032,59,0101000020E610000052D90B6025A95F40A60D669798BC4240,130,0.062,0.06,0.8,0.005
268,부산,명장동,부산 동래구 명장로 32 명장1동 주민센터 옥상,129.10435,35.20477733,정좌표,051,24,0101000020E6100000CEAACFD556236040F6A7BF24369A4140,78,0.079,0.015,-1,-1
414,전남,신안군,전라남도 신안군 안좌면 중부로 860 신안군 측정소,126.1258939,34.75565511,정좌표,061,17,0101000020E610000004D149A50E885F40AD40804EB9604140,55,0.089,0.005,0.3,0.003
285,울산,대송동,울산 동구 대송5길 10 대송동주민센터 옥상,129.4183407,35.50316106,정좌표,052,31,0101000020E6100000BE22090C632D60400CA9E49467C04140,69,0.102,0.009,0.4,0.003
270,부산,부곡동,부산 금정구 부곡로156번길 7 부곡2동 주민센터 옥상 (부곡동),129.0926972,35.22983656,정좌표,051,28,0101000020E6100000C94D1E60F72260400550CE486B9D4140,60,0.093,0.017,0.4,0.003
465,전북,심원면,전라북도 고창군 심원면 심원로 211 심원면사무소,126.5508661,35.52418512,정좌표,063,36,0101000020E610000067FEE26341A35F4094B97D7F18C34140,69,0.096,0.008,0.5,0.006
415,전남,신지면,전라남도 완도군 신지면 신지로 567 신지면 문화센터,126.8283298,34.33449056,정좌표,061,18,0101000020E61000005853FE5A03B55F40A7023096D02A4140,33,0.066,0.006,0.5,0.004
449,전북,고창읍,전북 고창군 고창읍 월곡공원 1길 36 여성회관 2층 옥상 ,126.7127608,35.43811974,정좌표,063,24,0101000020E6100000BB7779DF9DAD5F401984C14E14B84140,59,0.105,0.009,0.5,0.005
42,경기,기흥,경기 용인시 기흥구 관곡로 95 기흥구청,127.1146892,37.28044759,정좌표,031,32,0101000020E610000015CD5E1157C75F4061A5E5B4E5A34240,80,0.112,0.02,0.4,0.003
138,인천,길상,인천 강화군 길상면 강화동로 15-1 길상면보건지소 2층,126.4912392,37.64047909,정좌표,032,39,0101000020E6100000D8A08A76709F5F4032A90438FBD14240,80,0.099,0.023,0.6,0.007
312,대구,유가읍,대구광역시 달성군 유가읍 테크노북로6길 20 비슬공원,128.4597587,35.69470173,인근좌표,053,27,0101000020E6100000A691E057B60E60408D697DFCEBD84140,75,0.085,0.008,0.4,0.002
457,전북,비응도동,전북 군산시 새만금북로 43 비응 119 안전센터 옥상 (비응도동),126.5408278,35.94377062,정좌표,063,38,0101000020E6100000217134EC9CA25F40AFE9C579CDF84140,87,0.078,0.016,0.5,0.005
444,광주,주월동,광주 남구 회서로 21번가길 13 주월1동 주민센터,126.8933326,35.13193559,정좌표,062,25,0101000020E6100000D75C7F5C2CB95F403E1DF243E3904140,68,0.108,0.015,0.6,0.006
334,경북,성건동,경북 경주시 성건동 667-3(성건동주민센터) 성건동주민센터,129.2085155,35.85306078,인근좌표,054,44,0101000020E6100000B1A6B228AC266040D5CC7B1831ED4140,94,0.088,0.016,0.5,0.006
148,인천,숭의,인천 미추홀구 독정안길 26 용정초등학교,126.6572348,37.45943743,정좌표,032,66,0101000020E6100000C2F28C2210AA5F40433480D8CEBA4240,132,0.049,0.083,0.7,0.005
27,경기,가평,경기도 가평군 가평읍 석봉로 181 가평군청 의회동,127.5101842,37.83113936,정좌표,031,26,0101000020E6100000E67BA1DBA6E05F4027CF48C662EA4240,57,0.082,0.009,0.3,0.003
400,전남,광양읍,전남 광양시 광양읍 인덕로 1100(칠성리) 광양읍 2청사 옥상,127.5822724,34.98079611,정좌표,061,28,0101000020E610000042D774F343E55F403C3F18BA8A7D4140,64,0.101,0.017,0.5,0.009
440,광주,오선동,광주 광산구 하남산단 6번로 107 삼성전자 환경안전센터,126.8076911,35.20251113,정좌표,062,23,0101000020E61000004CF10236B1B35F4087367CE2EB994140,70,-1,-1,-1,-1
150,인천,아암,인천광역시 연수구 센트럴로 350 송도달빛축제공원 지장 (송도동),126.6340696,37.40485437,정좌표,032,61,0101000020E6100000D2D8A89894A85F4077659B44D2B34240,119,0.082,0.068,0.6,0.005
440,광주,오선동,광주 광산구 하남산단 6번로 107 삼성전자 환경안전센터,126.8076911,35.20251113,정좌표,062,23,0101000020E61000004CF10236B1B35F4087367CE2EB994140,70,-1,-1,-1,-1
477,전북,함열읍,전라북도 익산시 함열읍 함열중앙로 83 익산시청 북부청사 옥상,126.9664969,36.0789204,정좌표,063,-1,0101000020E6100000DD4BD015DBBD5F405E7E4C101A0A4240,-1,-1,-1,-1,-1
271,부산,수정동,부산 동구 구청로 1 동구청 지상,129.0449088,35.12933073,정좌표,051,28,0101000020E6100000AF6994E46F216040E1DBCBE88D904140,88,0.067,0.039,0.4,0.006
306,대구,본동,대구광역시 달서구 구마로26길 62 본동행정복지센터 (본동),128.541042,35.83444093,정좌표,053,41,0101000020E610000066F84F37501160409C65DCF5CEEA4140,77,0.109,0.02,0.5,0.002
315,대구,진천동,대구광역시 달서구 월배로 131 월배초등학교 (진천동),128.5292647,35.81699991,정좌표,053,33,0101000020E6100000AC2D86BCEF1060407924FB7393E84140,67,0.122,0.019,0.4,0.003
19,서울,양천구,서울 양천구 중앙로52길 56 신정4동 문화센터,126.8565997,37.52597157,정좌표,02,36,0101000020E6100000DC508C87D2B65F404DE3510953C34240,82,0.077,0.031,0.5,0.004
408,전남,부흥동,전남 목포시 삼향천로 28(옥암동) 부흥동주민센터,126.4345339,34.80429658,정좌표,061,7,0101000020E610000037604667CF9B5F403CB1B930F3664140,58,0.063,0.006,0.4,0.003
413,전남,신대,전라남도 순천시 해룡면 매안로 162 순천시립신대도서관,127.5481901,34.93662189,정좌표,061,31,0101000020E61000006CDFED8B15E35F404422E139E3774140,77,0.105,0.007,0.3,0.003
185,충남,대산리,충청남도 서산시 대산읍 충의로 1942 대산종합시장 옥상,126.4339428,36.93800525,정좌표,041,34,0101000020E61000006B9505B8C59B5F40F81C588E10784240,99,0.126,0.025,0.6,0.006
84,경기,식사동,경기 고양시 일산동구 위시티로 151 양일초등학교,126.8136089,37.68534224,정좌표,031,-1,0101000020E6100000034F102B12B45F4006AF654BB9D74240,-1,-1,-1,-1,-1
473,전북,죽항동,전북 남원시 죽항동 비석길 72 죽항동주민센터 옥상 ,127.3844091,35.40743551,정좌표,063,19,0101000020E61000003A32A0289AD85F40EC56C7D826B44140,50,0.076,0.006,0.4,0.003
471,전북,임실읍,전라북도 임실군 임실읍 운수로 33-50 청소년문화의집 옥상,127.2864686,35.61426821,정좌표,063,23,0101000020E61000002E15658055D25F4013763857A0CE4140,48,0.084,0.008,0.4,0.004
331,경북,보덕동,경북 경주시 경감로 587-18 경주스마트미디어센터 지상,129.2872754,35.83577683,정좌표,054,38,0101000020E610000040FE2D5C3129604062CD33BCFAEA4140,85,0.126,0.013,0.4,0.009
190,충남,둔포면,충청남도 아산시 둔포면 중앙공원로 43 둔포면 측정소,127.0588543,36.91946484,정좌표,041,40,0101000020E6100000A76ED344C4C35F409ACF1C06B1754240,81,0.109,0.011,0.3,0.005
423,전남,장성읍,전남 장성군 장성읍 영천로 211 장성읍사무소 옥상,126.7854901,35.30333692,정좌표,061,26,0101000020E61000003CB5447845B25F40E18883BED3A64140,67,0.097,0.011,0.5,0.006
193,충남,백석동,충남 천안시 백석동 555-57번지(백성농공단지) 백성농공단지,127.1109153,36.82493732,정좌표,041,20,0101000020E610000011887C3C19C75F402F53CD8B97694240,69,0.116,0.014,0.4,0.004
85,경기,신원동,경기 고양시 덕양구 신원2로 24 신원도서관,126.8863578,37.66638165,정좌표,031,35,0101000020E61000007DE31016BAB85F40C7B370FE4BD54240,89,0.099,0.032,0.5,0.004
476,전북,팔봉동,전북 익산시 무왕로 1338. 익산소방서 옥상,127.0051086,35.9622401,정좌표,063,23,0101000020E61000006A7B05B353C05F402C3300AF2AFB4140,55,0.062,0.001,0.5,0.003
426,전남,중동,전남 광양시 중마중앙로 109 광양소방서 옥상,127.6977092,34.94008994,정좌표,061,31,0101000020E610000093077D44A7EC5F409FCCFDDD54784140,83,0.076,0.028,0.8,0.013
287,울산,무거동,울산 남구 대학로 147번길 38 무거동주민센터,129.2606575,35.55090937,정좌표,052,44,0101000020E6100000A1BE654E57286040E09ABF3284C64140,72,0.1,0.045,0.5,0.017
409,전남,빛가람동,전남 나주시 빛가람로 719 빛가람동 주민센터 옥상,126.7903634,35.02175896,정좌표,061,23,0101000020E610000025BD5E5095B25F4028CC62FFC8824140,53,-1,0.009,0.3,0.004
337,경북,안강읍,경북 경주시 안강읍 비화동길 9-40 대한노인회 경주시지회 안강읍분회 옥상,129.2270318,35.99077469,정좌표,054,54,0101000020E6100000DD8431D84327604095A07DB4D1FE4140,100,-1,-1,-1,-1
383,경남,아주동,경남 거제시 아주동 산164-1 거제시 옥포 유해대기측정소,128.6905813,34.86331607,정좌표,055,35,0101000020E61000005557F43D1916604071611724816E4140,83,0.052,0.043,0.5,0.005
460,전북,소룡동,전북 군산시 외항1길 222. (롯데주류) 3층옥상 롯데주류,126.6507868,35.97678266,정좌표,063,38,0101000020E6100000C9AAAD7DA6A95F40FCFFD53607FD4140,94,0.07,0.03,0.5,0.012
397,전남,강진읍,전라남도 강진군 강진읍 동성로 72 강진읍 측정소,126.7712029,34.64441349,정좌표,061,20,0101000020E6100000258568635BB15F405B5328247C524140,45,0.103,0.006,0.3,0.003
407,전남,벌교읍,전남 보성군 벌교읍 체육공원길 35 벌교읍 측정소,127.3476659,34.84185237,정좌표,061,20,0101000020E6100000CD9B792840D65F40E49A86D1C16B4140,54,0.082,0.006,0.5,0.003
325,경북,대가야읍,경북 고령군 대가야읍 성산로 46 고령배수지,128.2872368,35.72851986,정좌표,054,18,0101000020E6100000A5C63A0B31096040DF97862340DD4140,63,0.088,0.002,0.7,0.003
370,경남,명서동,경상남도 창원시 의창구 우곡로101번길 28 명서2동 민원센터 (명서동),128.6417464,35.2433942,정좌표,055,26,0101000020E61000006C0ABF2F891460409E84888A279F4140,53,0.084,0.018,0.5,0.004
398,전남,고흥읍,전라남도 고흥군 고흥읍 터미널길 11 고흥읍사무소,127.2811774,34.60625368,정좌표,061,17,0101000020E6100000F5577ECFFED15F40FF5678B8994D4140,56,0.091,0.005,0.4,0.003
113,경기,정왕동,경기 시흥시 정왕대로 233번길 19 정왕보건지소,126.7401524,37.34672014,정좌표,031,53,0101000020E610000094032CA85EAF5F401015575361AC4240,122,0.076,0.054,0.6,0.005
364,경남,고현동,경상남도 거제시 계룡로 125 거제시청 옥상 (고현동),128.6217935,34.88091551,정좌표,055,22,0101000020E6100000B16B7BBBE51360409DFEE4D6C1704140,61,0.096,0.013,0.5,0.004
130,경기,호계동,경기 안양시 동안구 경수대로 665번길 11 호계2동 행정복지센터,126.9528196,37.38115353,정좌표,031,27,0101000020E6100000383F0FFFFABC5F406F0D8DA3C9B04240,94,0.068,0.034,0.4,0.005
414,전남,신안군,전라남도 신안군 안좌면 중부로 860 신안군 측정소,126.1258939,34.75565511,정좌표,061,17,0101000020E610000004D149A50E885F40AD40804EB9604140,55,0.089,0.005,0.3,0.003
399,전남,곡성읍,전남 곡성군 곡성읍 학정3길 6 곡성읍 측정소,127.2899497,35.28342608,정좌표,061,17,0101000020E61000000ABF2F898ED25F407C37484E47A44140,51,0.086,0.014,0.8,0.004
477,전북,함열읍,전라북도 익산시 함열읍 함열중앙로 83 익산시청 북부청사 옥상,126.9664969,36.0789204,정좌표,063,-1,0101000020E6100000DD4BD015DBBD5F405E7E4C101A0A4240,-1,-1,-1,-1,-1
415,전남,신지면,전라남도 완도군 신지면 신지로 567 신지면 문화센터,126.8283298,34.33449056,정좌표,061,18,0101000020E61000005853FE5A03B55F40A7023096D02A4140,33,0.066,0.006,0.5,0.004
472,전북,장수읍,전라북도 장수군 장수읍 호비로 10 장수군청 옥상,127.5212107,35.648273,정좌표,063,9,0101000020E6100000D1B41F845BE15F409EF0129CFAD24140,32,0.069,0.004,0.3,0.003
17,서울,성북구,서울 성북구 삼양로2길 70 길음2동 주민센터,127.0272867,37.60681903,정좌표,02,37,0101000020E61000006907B710BFC15F406038F83EACCD4240,132,0.083,0.035,0.4,0.004
454,전북,무주읍,전라북도 무주군 무주읍 향학로 49 무주읍사무소 옥상,127.6618424,36.0086605,정좌표,063,17,0101000020E6100000CBC639A05BEA5F402D228AC91B014240,43,0.077,0.006,0.3,0.003
128,경기,행신동,경기 고양시 덕양구 화신로 148 행신배수지 가라산공원,126.8419938,37.6251816,정좌표,031,39,0101000020E6100000D39BF639E3B55F40CD075FF305D04240,89,0.083,0.033,0.5,0.004
358,경북,형곡동,경북 구미시 형곡동 142(구미시립도서관) 구미시립도서관,128.3359948,36.11361707,정좌표,054,18,0101000020E610000009B42A78C00A60406BF50F018B0E4240,52,0.094,0.017,0.2,0.004
347,경북,원평동,경북 구미시 원평동 56-4(구미중앙로 24) 동사무소,128.3258661,36.13088731,정좌표,054,15,0101000020E6100000014CBE7E6D0A6040A9F455EAC0104240,64,0.096,0.012,0.5,0.003
189,충남,동문동,충청남도 서산시 중앙로 38-1 서산초등학교 (동문동),126.4555273,36.7803467,정좌표,041,32,0101000020E6100000DAFBF95B279D5F4051059266E2634240,68,0.096,0.013,0.4,0.004
456,전북,부안읍,전북 부안군 행안면 변산로 16 농업인 회관,126.7189433,35.72954406,정좌표,063,32,0101000020E61000006A4BC22A03AE5F40755823B361DD4140,68,0.108,0.014,0.6,0.003
413,전남,신대,전라남도 순천시 해룡면 매안로 162 순천시립신대도서관,127.5481901,34.93662189,정좌표,061,31,0101000020E61000006CDFED8B15E35F404422E139E3774140,77,0.105,0.007,0.3,0.003
93,경기,영통동,경기 수원시 영통구 영통로 217번길 12 영통2동 행정복지센터,127.0563253,37.24696263,정좌표,031,35,0101000020E6100000FE5B6ED59AC35F409297B1789C9F4240,86,0.095,0.019,0.5,0.003
212,충남,태안읍,충남 태안군 태안읍 군청6길 태안군장애인복지관,126.3013594,36.74684293,인근좌표,041,21,0101000020E6100000E6D5EF7849935F40A6CC938C985F4240,92,0.094,0.014,0.4,0.004
436,광주,노대동,광주광역시 남구 덕남길 7 문화관 근처 (노대동),126.8954742,35.09992207,정좌표,062,26,0101000020E61000005ADA04734FB95F403966133FCA8C4140,59,0.119,0.008,0.8,0.006
344,경북,외동읍,경북 경주시 외동읍 입실로3길 31 외동보건지소 옥상,129.3235759,35.71570495,정좌표,054,36,0101000020E6100000C388D8BB5A2A6040ECEA44389CDB4140,70,0.104,0.013,0.5,0.006
403,전남,담양읍,전라남도 담양군 담양읍 면앙정로 730 담양군 농업기술센터 생명농업연구동 뒤편,126.9735158,35.31118484,정좌표,061,9,0101000020E6100000EAC836154EBE5F40CF67A3E7D4A74140,66,0.05,0.005,0.3,0.004
186,충남,대천2동,충남 보령시 중앙로 142-16 (대천2동 주민센터 옥상),126.5897818,36.35341019,정좌표,041,36,0101000020E6100000AAB129FCBEA55F40C30F8C8B3C2D4240,65,0.109,0.009,0.5,0.005
445,광주,평동,광주광역시 광산구 평동산단로 184-1 평동종합비즈니스센터 후문 주차장 입구 (월전동),126.7692624,35.12362379,정좌표,062,29,0101000020E6100000B8825C983BB15F405F8783E7D28F4140,79,0.109,0.014,0.8,0.006
184,충남,당진시청사,충남 당진시 시청1로 1 당진시청사,126.6459712,36.88974068,정좌표,041,36,0101000020E61000001B8A969757A95F40AA42C905E3714240,93,0.104,0.029,0.3,0.006
404,전남,덕충동,전남 여수시 덕충안길 95 만덕동주민자치센터,127.7465976,34.7536612,정좌표,061,19,0101000020E61000006AD14C41C8EF5F40CF215FF877604140,49,0.085,0.014,0.5,0.003
188,충남,독곶리,충남 서산시 대산읍 평신1로(독곶리) 한국수자원공사 대산산업용수센터 저수동 옥상,126.3698813,36.98637848,인근좌표,041,64,0101000020E6100000BAB99D22AC975F40028A68A6417E4240,103,0.118,0.038,0.6,0.013
84,경기,식사동,경기 고양시 일산동구 위시티로 151 양일초등학교,126.8136089,37.68534224,정좌표,031,-1,0101000020E6100000034F102B12B45F4006AF654BB9D74240,-1,-1,-1,-1,-1
417,전남,연향동,전남 순천시 연향번영길 54(연향동) 연향도서관 옥상,127.5185747,34.94710614,정좌표,061,29,0101000020E61000001D42F05330E15F40069224C63A794140,64,0.102,0.008,0.4,0.003
169,강원,옥천동,강원 강릉시 경강로 2179(옥천동 327-2) 옥천동주민센터 2층 옥상,128.9029942,37.76014248,정좌표,033,12,0101000020E610000049AF1754E51C60403EF349594CE14240,57,0.062,0.012,0.3,0.002
443,광주,일곡동,광주광역시 북구 모룡대길 68 교통문화연수원 옥상 (일곡동),126.8926489,35.21828688,정좌표,062,22,0101000020E6100000DD13DA2821B95F40795F11D3F09B4140,47,0.101,0.009,0.5,0.005
20,서울,영등포구,서울특별시 영등포구 당산로 123 영등포구청 (당산동3가),126.8963685,37.52596521,정좌표,02,45,0101000020E6100000882AFC195EB95F4053E4F7D352C34240,85,0.064,0.054,0.7,0.004
481,제주,동홍동,제주 서귀포시 동홍동 453-1(서귀포소방서) 서귀포소방서,126.5670531,33.25148459,정좌표,064,11,0101000020E61000001BE615994AA45F40BDBFA4A530A04040,41,0.092,0.006,0.3,0.002
85,경기,신원동,경기 고양시 덕양구 신원2로 24 신원도서관,126.8863578,37.66638165,정좌표,031,35,0101000020E61000007DE31016BAB85F40C7B370FE4BD54240,89,0.099,0.032,0.5,0.004
346,경북,울진군,경상북도 울진군 울진읍 읍내10길 19 울진읍사무소,129.4026801,36.99730887,정좌표,054,19,0101000020E6100000008860C1E22C604092542AD1A77F4240,49,0.076,0.005,0.3,0.003
475,전북,팔복동,전북 전주시 덕진구 서귀로 107 청소년자유센터 옥상 ,127.0870117,35.85144218,정좌표,063,32,0101000020E6100000A477859991C55F4079C4AE0EFCEC4140,67,0.087,0.019,0.3,0.003
482,제주,성산읍,제주 서귀포시 성산읍 일주동로 4120번길 7 (동부소방서),126.9097276,33.46001475,정좌표,064,20,0101000020E610000030911CFA38BA5F40BC7669C3E1BA4040,57,0.08,0.006,0.3,0.001
486,제주,한림읍,제주특별자치도 제주시 한림읍 한림중앙로 71-9 한림읍 체육관,126.2680776,33.40874345,정좌표,064,19,0101000020E61000009232F32E28915F40241A93B451B44040,41,0.08,0.009,0.3,0.002
353,경북,진미동,경상북도 구미시 이계북로 149 진미동 행정복지센터 (진평동),128.4187934,36.10604178,정좌표,054,27,0101000020E6100000FB986AC1660D6040088EECC6920D4240,69,0.109,0.013,0.5,0.004
189,충남,동문동,충청남도 서산시 중앙로 38-1 서산초등학교 (동문동),126.4555273,36.7803467,정좌표,041,32,0101000020E6100000DAFBF95B279D5F4051059266E2634240,68,0.096,0.013,0.4,0.004
245,충북,음성읍,충청북도 음성군 음성읍 중앙로 49 읍성보건소 옥상,127.6888784,36.92884066,정좌표,043,38,0101000020E6100000EEBA6D9516EC5F4091F23040E4764240,61,0.096,0.011,0.4,0.003
449,전북,고창읍,전북 고창군 고창읍 월곡공원 1길 36 여성회관 2층 옥상 ,126.7127608,35.43811974,정좌표,063,24,0101000020E6100000BB7779DF9DAD5F401984C14E14B84140,59,0.105,0.009,0.5,0.005
439,광주,서석동,광주 동구 서남로 1 동구청보건소,126.9232534,35.14567609,정좌표,062,22,0101000020E6100000EEBA6D9516BB5F40F92D9D83A5924140,59,0.108,0.015,0.7,0.006
446,전북,개정동,전북 군산시 개정동 507-24 개정동주민센터 2층옥상 ,126.7544464,35.96424014,정좌표,063,24,0101000020E610000070A58DD948B05F402E658D386CFB4140,69,0.088,0.012,0.4,0.006
360,경남,가야읍,경남 함안군 가야읍 함안대로 505 가야읍행정복지센터 옥상,128.4086111,35.27224105,정좌표,055,21,0101000020E61000000BE99557130D6040793073CBD8A24140,57,0.088,0.008,0.4,0.003
31,경기,고읍,경기 양주시 고읍남로 205 청소년문화의 집,127.0847478,37.79168846,정좌표,031,33,0101000020E61000001C5A09826CC55F400A29260C56E54240,74,0.105,0.013,0.5,0.004
160,강원,남양동1,강원 삼척시 남양길 11(남양동 331-9) 남양동주민센터 3층 옥상,129.1683387,37.44259984,정좌표,033,18,0101000020E6100000D664D70763256040E6018F1CA7B84240,44,0.057,0.011,0.5,0.003
234,충북,산남동,충청북도 청주시 서원구 원흥로 81 청주지방법원 옆 주차장 지상 (산남동),127.4687726,36.61326335,정좌표,043,37,0101000020E6100000B290CA5E00DE5F40EE0AD8697F4E4240,73,0.103,0.012,0.3,0.002
236,충북,소이면,충청북도 음성군 소이면 소이로 409 소이면전천후게이트볼장 공터,127.7576502,36.92364975,정좌표,043,16,0101000020E6100000B4B343577DF05F40B39AAE273A764240,68,0.1,0.01,0.5,0.003
202,충남,엄사면,충청남도 계룡시 엄사면 번영7길 17 엄사도서관 옥상,127.2379162,36.28701082,정좌표,041,-1,0101000020E6100000128CDE043ACF5F40C3BF42C5BC244240,-1,-1,-1,-1,-1
181,충남,금산읍,충남 금산군 금산읍 비호로 69 금산읍사무소 별관 1층 옥상,127.4908936,36.10715379,정좌표,041,-1,0101000020E61000003574FDCC6ADF5F40A2D82337B70D4240,-1,-1,-1,-1,-1
33,경기,고천동,경기 의왕시 시청로 11 의왕시청 민원실,126.968285,37.34477464,정좌표,031,18,0101000020E6100000450DA661F8BD5F4024A54D9321AC4240,69,0.091,0.021,0.4,0.003
203,충남,연무읍,충청남도 논산시 연무읍 안심로 50 연무읍사무소 옥상,127.0990302,36.12512317,정좌표,041,20,0101000020E61000003F94C38256C65F40998F390904104240,55,0.114,0.01,0.5,0.004
17,서울,성북구,서울 성북구 삼양로2길 70 길음2동 주민센터,127.0272867,37.60681903,정좌표,02,37,0101000020E61000006907B710BFC15F406038F83EACCD4240,132,0.083,0.035,0.4,0.004
182,충남,내포,충청남도 홍성군 홍북읍 홍예공원로 8 충남보건환경연구원 부지내 1층,126.6677165,36.65310197,정좌표,041,30,0101000020E6100000F99FFCDDBBAA5F40350D69D898534240,60,0.107,0.01,0.4,0.004
183,충남,논산,충남 논산시 시민로 389 (취암/부창동 행정복지센터 2층 옥상),127.0867948,36.19941886,정좌표,041,18,0101000020E6100000A0DDC60B8EC55F40EBF3A48E86194240,-1,-1,-1,-1,-1
184,충남,당진시청사,충남 당진시 시청1로 1 당진시청사,126.6459712,36.88974068,정좌표,041,36,0101000020E61000001B8A969757A95F40AA42C905E3714240,93,0.104,0.029,0.3,0.006
28,경기,경안동,경기 광주시 중앙로 128 농협중앙회,127.2580208,37.41122784,정좌표,031,20,0101000020E6100000046CAC6983D05F409B00261DA3B44240,62,0.087,0.02,0.3,0.003
19,서울,양천구,서울 양천구 중앙로52길 56 신정4동 문화센터,126.8565997,37.52597157,정좌표,02,36,0101000020E6100000DC508C87D2B65F404DE3510953C34240,82,0.077,0.031,0.5,0.004
32,경기,고잔동,경기 안산시 단원구 화랑로 387 안산시청,126.8302415,37.32212965,정좌표,031,16,0101000020E61000000C923EAD22B55F4035E95B8B3BA94240,90,0.085,0.026,0.4,0.004
226,충북,감물면,충청북도 괴산군 감물면 충민로신대길 13 감물면사무소 지상,127.8750305,36.83676477,정좌표,043,25,0101000020E61000002920ED7F00F85F4028CCA41B1B6B4240,62,0.087,0.006,0.3,0.004
186,충남,대천2동,충남 보령시 중앙로 142-16 (대천2동 주민센터 옥상),126.5897818,36.35341019,정좌표,041,36,0101000020E6100000AAB129FCBEA55F40C30F8C8B3C2D4240,65,0.109,0.009,0.5,0.005
31,경기,고읍,경기 양주시 고읍남로 205 청소년문화의 집,127.0847478,37.79168846,정좌표,031,33,0101000020E61000001C5A09826CC55F400A29260C56E54240,74,0.105,0.013,0.5,0.004
206,충남,인주면,충청남도 아산시 인주면 인주산단로 23-28 인주면 측정소,126.8792255,36.87315139,정좌표,041,44,0101000020E6100000CB13083B45B85F40E340BC6CC36F4240,98,0.09,0.031,0.4,0.009
478,전북,혁신동,전라북도 전주시 덕진구 중동로 150 공원 내 (장동),127.0631118,35.84645408,정좌표,063,38,0101000020E6100000783F13060AC45F403895779B58EC4140,77,0.087,0.01,0.3,0.002
40,경기,금곡동,경기 남양주시 경춘로 1037 남양주시청 신관,127.215759,37.63536634,정좌표,031,-1,0101000020E61000005534D6FECECD5F40BDA329AF53D14240,-1,-1,-1,-1,-1
227,충북,괴산읍,충북 괴산군 괴산읍 서부리 377-1 반석아파트 앞 지상,127.7892943,36.80756727,정좌표,043,22,0101000020E6100000D45A3DCC83F25F4029FC425D5E674240,50,0.081,0.008,0.4,0.002
98,경기,와부읍,경기도 남양주시 와부읍 도곡길 7 덕소중학교 후관동 옥상,127.2270733,37.58086262,정좌표,031,39,0101000020E6100000DE52735E88CE5F40372FD2B459CA4240,97,0.106,0.023,0.5,0.003
335,경북,성주군,경상북도 성주군 성주읍 성주로 3258 성주군 별고을교육원 옥상,128.290224,35.91743945,정좌표,054,34,0101000020E61000007590D78349096040B6E7E8A76EF54140,64,0.096,0.011,0.6,0.003
320,경북,3공단,경북 포항시 남구 대송면 철강산단로130번길 29 3공단 배수지,129.3747663,35.96455305,인근좌표,054,35,0101000020E61000009344E515FE2B6040E7806E7976FB4140,86,0.066,0.017,0.7,0.011
96,경기,오정동,경기 부천시 성오로 172 오정어울마당 아트홀,126.7965348,37.52772812,정좌표,031,0,0101000020E61000000F08196DFAB25F402F4A54988CC34240,100,0.081,0.034,0.6,0.006
168,강원,영월읍,강원도 영월군 영월읍 팔괴로 7-3 능동배수펌프장 부지내 지상,128.4553109,37.17258265,정좌표,033,17,0101000020E610000065202AE8910E6040B3CD323017964240,55,0.085,0.01,0.4,0.003
102,경기,운중동,경기 성남시 분당구 운중로 138번길 10 운중동행정복지센터,127.0778927,37.39058189,정좌표,031,33,0101000020E610000038C6A931FCC45F40DDFA5D96FEB14240,73,0.091,0.014,0.7,0.001
364,경남,고현동,경상남도 거제시 계룡로 125 거제시청 옥상 (고현동),128.6217935,34.88091551,정좌표,055,22,0101000020E6100000B16B7BBBE51360409DFEE4D6C1704140,61,0.096,0.013,0.5,0.004
38,경기,광교동,경기 수원시 영통구 법조로 129 이의중학교,127.0707661,37.29132618,정좌표,031,36,0101000020E6100000974A896E87C45F40C8C81F2D4AA54240,-1,-1,-1,-1,-1
109,경기,인계동,경기 수원시 팔달구 효원로 241 수원시청,127.0286618,37.26345269,정좌표,031,22,0101000020E61000003F694D98D5C15F40EFCB57D1B8A14240,82,0.101,0.02,0.5,0.003
228,충북,단성면,충북 단양군 단성면 충혼로 52-1 단성보건지소 주차장(지면),128.320839,36.93915662,정좌표,043,18,0101000020E610000001892650440A6040675CBC4836784240,41,0.084,0.007,0.2,0.002
229,충북,단양읍,충청북도 단양군 단양읍 별곡6길 26 공설운동장 공중화장실 옥상,128.3656153,36.98734969,정좌표,043,30,0101000020E61000005A8DDB1EB30B604004228279617E4240,55,0.083,0.011,0.5,0.002
383,경남,아주동,경남 거제시 아주동 산164-1 거제시 옥포 유해대기측정소,128.6905813,34.86331607,정좌표,055,35,0101000020E61000005557F43D1916604071611724816E4140,83,0.052,0.043,0.5,0.005
386,경남,월영동,경남 창원시 마산합포구 월영동16길 22 마산합포구도서관 옥상 (해운동),128.5573497,35.19005738,정좌표,055,36,0101000020E6100000EFBD09CFD511604052BBDBCC53984140,67,0.096,0.033,0.5,0.005
232,충북,보은읍,충청북도 보은군 보은읍 삼산로 50 보은읍 행정복지센터 옥상,127.7169681,36.48358609,정좌표,043,23,0101000020E61000009E712BCEE2ED5F40DEAC2426E63D4240,55,0.091,0.01,0.4,0.004
484,제주,이도동,제주 제주시 이도2동 1176-1(제주시청) 제주시청,126.5314098,33.49979066,정좌표,064,24,0101000020E610000088F13F9E02A25F40ECC5ED23F9BF4040,51,0.089,0.014,0.3,0.003
285,울산,대송동,울산 동구 대송5길 10 대송동주민센터 옥상,129.4183407,35.50316106,정좌표,052,31,0101000020E6100000BE22090C632D60400CA9E49467C04140,69,0.102,0.009,0.4,0.003
211,충남,탄천면,충청남도 공주시 탄천면 안터새말길 34 안영1리 경로당 옥상,127.0673243,36.30863791,정좌표,041,26,0101000020E610000078AE940A4FC45F40BEE0707281274240,57,0.1,0.005,0.3,0.005
173,강원,중앙로,강원 춘천시 중앙로길 135(중앙로 3가 67-1) 춘천시보건소 3층 옥상,127.7202187,37.87554765,정좌표,033,31,0101000020E6100000EE9D2C1018EE5F407A6B05F211F04240,71,0.067,0.009,0.4,0.002
123,경기,청계동,경기도 화성시 동탄순환대로22길 13 예솔초등학교 (청계동),127.1193978,37.19655138,정좌표,031,18,0101000020E6100000B88DAB36A4C75F40B68A7A9828994240,60,0.092,0.012,0.4,0.005
103,경기,원곡동,경기 안산시 단원구 원선로 91 백운동행정복지센터,126.8016574,37.3316778,정좌표,031,-1,0101000020E61000002BE6D65A4EB35F4095E70B6B74AA4240,-1,-1,-1,-1,-1
176,강원,홍천읍,강원도 홍천군 홍천읍 연봉동로 27 홍천기상관측소,127.8802631,37.68377266,정좌표,033,26,0101000020E610000009980A3B56F85F40AA4CCEDC85D74240,67,0.086,0.009,0.3,0.004
250,충북,청풍면,충청북도 제천시 청풍면 청풍호로 2115 청풍면행정복지센터 옆쪽 공터,128.1684567,37.00082114,정좌표,043,47,0101000020E610000059294EFF6305604004B938E81A804240,62,-1,-1,-1,-1
482,제주,성산읍,제주 서귀포시 성산읍 일주동로 4120번길 7 (동부소방서),126.9097276,33.46001475,정좌표,064,20,0101000020E610000030911CFA38BA5F40BC7669C3E1BA4040,57,0.08,0.006,0.3,0.001
106,경기,의정부1동,경기 의정부시 가능로152번길 14 의정부1동 주민센터,127.0476794,37.74631372,정좌표,031,-1,0101000020E610000059ECE52D0DC35F4062FA3D3587DF4240,-1,0.119,0.02,0.5,0.004
448,전북,고산면,전북 완주군 고산면 고산로 69-13 고산면주민자치센터 옥상,127.205685,35.97650469,정좌표,063,30,0101000020E6100000C7116BF129CD5F4066F80D1BFEFC4140,72,0.096,0.012,0.5,0.003
450,전북,관촌면,전라북도 임실군 관촌면 사선1길 13 관촌면 행정복지센터 옥상,127.2708373,35.67382366,정좌표,063,21,0101000020E61000005D82F86555D15F404A7C8BDA3FD64140,65,0.092,0.01,0.4,0.004
255,세종,아름동,세종특별자치시 보듬3로 114 아름동커뮤니티센터 옥상 (아름동),127.24689,36.51235217,정좌표,044,19,0101000020E610000067EDB60BCDCF5F40A21783C194414240,48,0.105,0.011,0.5,0.004
369,경남,동상동,경남 김해시 호계로 517번길 8 (동상동 주민센터),128.883628,35.23682204,정좌표,055,28,0101000020E61000008E3A3AAE461C6040D162422F509E4140,56,0.092,0.028,0.6,0.004
371,경남,무전동,경상남도 통영시 안개4길 53 무전동주민센터 (무전동),128.4324409,34.85734047,정좌표,055,21,0101000020E61000007D5E4C8ED60D6040F8172055BD6D4140,68,0.102,0.016,0.4,0.003
256,세종,한솔동,"세종특별자치시 누리로 27 첫마을 6단지 관리사무소 옥상 (한솔동, 첫마을6단지)",127.2540406,36.47431633,정좌표,044,-1,0101000020E6100000CC36813342D05F4085A7C265B63C4240,-1,-1,-1,-1,-1
107,경기,의정부동,경기 의정부시 범골로 138 경기도도로사업소,127.0408153,37.73557605,정좌표,031,28,0101000020E61000004BABC6B79CC25F40453C235B27DE4240,73,0.093,0.017,0.6,0.005
196,충남,서천읍,충남 서천군 서천읍 서천로14번길 20 서천읍 문예의전당 주차장,126.6983681,36.07636541,정좌표,041,24,0101000020E610000075841D10B2AC5F40713F7D57C6094240,56,0.099,0.018,0.5,0.004
454,전북,무주읍,전라북도 무주군 무주읍 향학로 49 무주읍사무소 옥상,127.6618424,36.0086605,정좌표,063,17,0101000020E6100000CBC639A05BEA5F402D228AC91B014240,43,0.077,0.006,0.3,0.003
201,충남,신방동,충남 천안시 동남구 천안천변길 127 천안시 맑은물사업소 하수처리장 (신방동),127.1193441,36.781789,정좌표,041,29,0101000020E61000001E9E6F55A3C75F40B0AF75A911644240,77,0.101,0.009,0.3,0.005
114,경기,정자동,경기 성남시 분당구 돌마로 242 정자3동행정복지센터,127.1195524,37.36078842,정좌표,031,40,0101000020E6100000220A1CBFA6C75F407756A0502EAE4240,75,0.093,0.019,0.5,0.003
447,전북,계화면,전라북도 부안군 계화면 간재로 405 계화면사무소 옥상,126.6980762,35.7616955,정좌표,063,36,0101000020E61000006C47CC47ADAC5F405401F73C7FE14140,63,0.096,0.009,0.5,0.003
101,경기,운정,경기 파주시 와석순환로 470 한국토지주택공사 파주사업본부,126.7563258,37.72338989,정좌표,031,35,0101000020E6100000BF0754A467B05F404DE7370A98DC4240,81,0.096,0.023,0.5,0.004
237,충북,송정동(봉명동),충북 청주시 흥덕구 직지대로 393(송정동) 충북문화재연구원 옥상,127.4368501,36.64456429,정좌표,043,44,0101000020E610000047301F5AF5DB5F4017DC281581524240,95,0.112,0.02,0.4,0.002
457,전북,비응도동,전북 군산시 새만금북로 43 비응 119 안전센터 옥상 (비응도동),126.5408278,35.94377062,정좌표,063,38,0101000020E6100000217134EC9CA25F40AFE9C579CDF84140,87,0.078,0.016,0.5,0.005
